~VERSION INFORMATION
 VERS.                 2.0:   CWLS LOG ASCII STANDARD - VERSION 2.0
 WRAP.                  NO:   SINGLE LINE PER DEPTH STEP
 CREA.                 01/01/2018 01:01:01 p.m.
#CREATED USING IP VERSION 4.4.2017.257 BY UNKNOWN ON 01/01/2001 01:01:01 p.m.
~WELL INFORMATION
#MNEM.UNIT       DATA                          DESCRIPTION MNEMONIC
#---------      ---------------------------   --------------------------
 STRT    .M         416.4848                  : START DEPTH
 STOP    .M         2874.0872                 : STOP DEPTH
 STEP    .M         0.1524                    : STEP VALUE
 NULL    .      -999.0000                     : NULL VALUE
 DATE    .      28/02/2018                    : LAS file Creation Date
 WELL  .      CL-1001      : Well Name
 COMP  .      Unknown            : Company
 FLD   .      CL                 : Field
 STATE .      Unknown            : State
 COUNT .      Unknown            : Country
 API   .      Unknown            : API Number
 UWI   .                         : Unique Well Identifier (UWI)
 LOC   .      Localizacion       : Location
 TOWN  .      Unknown            : Township
 RANG  .      Unknown            : Range
 LATI  .      Unknown            : Latitude/Northing
 LONG  .      Unknown            : Longitude/Easting
 PDAT  .      Unknown            : Permanent Datum
 EPDAT .      Unknown            : Elevation of Permanent Datum
 LGMEA .      Unknown            : Log Measured from
 APDAT .      Unknown            : Elevation Above Permanent Datum
 KB    .      Unknown            : KB Elevation
 DF    .      Unknown            : DF Elevation
 GL    .      Unknown            : GL Elevation
 RWS   .      -999               : Def_Rw
 WST   .      -999               : Def_Rwt
 UTMZ  .      Unknown            : UTM Zone
 BHS   .      OPEN               : Completion Status
 RIGN  .      Unknown            : Rig Name
 CNTY  .      Unknown            : County
 PROV  .      Unknown            : Province
 MDEC  .      0                  : Magnetic Declination
 SRVC  .      Unknown            : Contractor
~CURVE INFORMATION
#MNEM               UNIT       API CODE   Curve Type Comments
#----------   --------------- ----------  ---------- -----------
 DEPTH       .M                         : Depth       
 ED_AT10     .ohm.m                     : ShalRes     (AIT-M)                 (3in)                   Array Induction Two Foot Resistivity A10
 ED_AT60     .ohm.m                     : MedRes      (AIT-M)                 (3in)                   Array Induction Two Foot Resistivity A60
 ED_AT90     .ohm.m                     : DeepRes     (AIT-M)                 (3in)                   Array Induction Two Foot Resistivity A90
 ED_BS       .in                        : BitSize     (RT)    (Borehole)              (6in)                   Bit Size
 ED_CALI     .in                        : Caliper     (HDRS-H)                (1in)                   Caliper
 ED_DTCO     .us/ft                     : Sonic       (DSLT-BB)               (6in)                   Delta-T (also called Slowness or Interval Transit Time)
 ED_GR       .gAPI                      : GammaRay    (HGNS-H)                (6in)                   Calibrated Gamma Ray
 ED_HDRA     .g/cm3                     : Drho        (HDRS-H)                (2in)                   Density Standoff Correction
 ED_NPHI     .m3/m3                     : Neutron     (HGNS-H)                (6in)                   Thermal Neutron Porosity (original Ratio Method) in Selected Lithology
 ED_PEFZ     .B/E                       : PEF         (HDRS-H)                (2in)                   Standard Resolution Formation Photoelectric Factor
 ED_RHOZ     .g/cm3                     : Density     (HDRS-H)                (2in)                   Standard Resolution Formation Density
 EV_BVW_K    .Dec                       : BVW         
 EV_BVWSXO_K .Dec                       : BVWSXO      
 EV_Perm_Mtz .mD                        :             
 EV_PHIE_K   .Dec                       : Phi         
 EV_SW_K     .Dec                       : Sw          
 EV_VDolC_K  .Dec                       :             
 EV_VLimeC_K .Dec                       :             
 EV_VWCL_K   .Dec                       : Vcl         
 FR_VP_km    .Km/seg                    :             
 FR_ZP_km    .Km/seg                    :             
 I_DRHO      .                          :             
 IND_GR      .                          :             
 IND_INV     .                          :             
~A  DEPTH  ED_AT10   ED_AT60   ED_AT90    ED_BS    ED_CALI   ED_DTCO    ED_GR    ED_HDRA   ED_NPHI   ED_PEFZ   ED_RHOZ   EV_BVW_K EV_BVWSX~ EV_Perm_~ EV_PHIE_~  EV_SW_K  EV_VDolC~ EV_VLime~ EV_VWCL_~  FR_VP_km  FR_ZP_km   I_DRHO    IND_GR   IND_INV  
# ...
1279.6784    1.7969    1.9921    2.0184    8.5000    8.7626   98.9073   66.3036    0.0080    0.3512    4.6986    2.4901    0.0165    0.0165 -999.0000    0.0165    1.0000    0.0000 -999.0000    0.7417    3.0817    7.6737 -999.0000    0.5704 -999.0000 
1279.8308    1.5246    1.6867    1.7123    8.5000    8.7626  102.7038   67.7020    0.0063    0.3607    4.4155    2.4717    0.0292    0.0292 -999.0000    0.0292    1.0000    0.0000 -999.0000    0.7326    2.9678    7.3354 -999.0000    0.5708 -999.0000 
1279.9832    1.3493    1.4568    1.4698    8.5000    8.7963  103.8927   63.3069    0.0053    0.3585    4.4076    2.4381    0.0633    0.0633 -999.0000    0.0633    1.0000    0.0000 -999.0000    0.6459    2.9338    7.1530 -999.0000    0.6201 -999.0000 
1280.1356    1.4326    1.5867    1.6000    8.5000    8.8525  103.9340   65.5329    0.0060    0.3472    4.5562    2.4209    0.0867    0.0867 -999.0000    0.0867    1.0000    0.0000 -999.0000    0.5652    2.9326    7.0996 -999.0000    0.6368 -999.0000 
1280.2880    1.6153    1.8032    1.8077    8.5000    8.7626  102.7069   65.1336    0.0100    0.3186    4.6493    2.4320    0.0920    0.0920 -999.0000    0.0920    1.0000    0.0000 -999.0000    0.4892    2.9677    7.2175 -999.0000    0.6438 -999.0000 
1280.4404    1.6701    1.8295    1.8198    8.5000    8.8975  100.0720   72.5255    0.0097    0.3206    4.6135    2.4517    0.0715    0.0715 -999.0000    0.0715    1.0000    0.0000 -999.0000    0.5425    3.0458    7.4675 -999.0000    0.6221 -999.0000 
1280.5928    1.6573    1.8491    1.8252    8.5000    8.7514  101.7286   72.3545    0.0102    0.3298    4.5521    2.4712    0.0470    0.0470 -999.0000    0.0470    1.0000    0.0000 -999.0000    0.6214    2.9962    7.4043 -999.0000    0.6428 -999.0000 
1280.7452    1.6605    1.8671    1.8556    8.5000    8.7626  101.2234   72.5544    0.0079    0.3623    4.5396    2.4728    0.0272    0.0272 -999.0000    0.0272    1.0000    0.0000 -999.0000    0.7408    3.0112    7.4459 -999.0000    0.6335 -999.0000 
1280.8976    1.6933    1.8805    1.8707    8.5000    8.7851  100.3443   65.3619    0.0079    0.3632    4.5889    2.4774    0.0222    0.0222 -999.0000    0.0222    1.0000    0.0000 -999.0000    0.7548    3.0375    7.5252 -999.0000    0.5996 -999.0000 
1281.0500    1.7875    2.0138    2.0145    8.5000    8.6727   98.4720   60.5381    0.0043    0.3641    4.5959    2.4739    0.0251    0.0251 -999.0000    0.0251    1.0000    0.0000 -999.0000    0.7499    3.0953    7.6576 -999.0000    0.5132 -999.0000 
1281.2024    1.9317    2.0669    2.0607    8.5000    8.7064   95.5949   54.5442    0.0027    0.3193    4.6362    2.4703    0.0539    0.0539 -999.0000    0.0539    1.0000    0.0000 -999.0000    0.5815    3.1885    7.8766 -999.0000    0.4515 -999.0000 
1281.3548    1.8886    2.0304    2.0617    8.5000    8.7626   94.8340   54.9723    0.0062    0.3168    5.0060    2.4533    0.0721    0.0721 -999.0000    0.0721    1.0000    0.0000 -999.0000    0.5328    3.2140    7.8851 -999.0000    0.4184 -999.0000 
1281.5072    1.6746    1.8096    1.8245    8.5000    8.7626   96.4883   54.5727    0.0111    0.3447    5.7912    2.4183    0.0907    0.0907 -999.0000    0.0907    1.0000    0.0000 -999.0000    0.5502    3.1589    7.6392 -999.0000    0.4062 -999.0000 
1281.6596    1.5646    1.7241    1.7248    8.5000    8.7626   96.2829   53.5734    0.0238    0.3477    6.5789    2.4183    0.0889    0.0889 -999.0000    0.0889    1.0000    0.0000 -999.0000    0.5609    3.1657    7.6557 -999.0000    0.4086 -999.0000 
1281.8120    1.5687    1.7286    1.7216    8.5000    8.5378   98.8145   51.7468    0.0331    0.3600    6.7406    2.4501    0.0508    0.0508 -999.0000    0.0508    1.0000    0.0000 -999.0000    0.6791    3.0846    7.5575 -999.0000    0.4674 -999.0000 
1281.9644    1.4984    1.6315    1.6171    8.5000    8.6390  102.7896   57.3410    0.0279    0.3682    6.2396    2.4567    0.0397    0.0397 -999.0000    0.0397    1.0000    0.0000 -999.0000    0.7241    2.9653    7.2847 -999.0000    0.6033 -999.0000 
1282.1168    1.3004    1.4509    1.4131    8.5000    8.7289  105.9469   61.7368    0.0155    0.3904    5.6593    2.4169    0.0662    0.0662 -999.0000    0.0662    1.0000    0.0000 -999.0000    0.7095    2.8769    6.9531 -999.0000    0.6299 -999.0000 
1282.2692    1.1642    1.2912    1.2610    8.5000    8.7851  110.1686   63.3349    0.0071    0.4251    5.5486    2.3664    0.0621    0.0621 -999.0000    0.0621    1.0000    0.0000 -999.0000    0.7151    2.7667    6.5472 -999.0000    0.5892 -999.0000 
1282.4216    1.2086    1.2810    1.2712    8.5000    8.8301  111.3606   62.9357    0.0111    0.4073    5.7962    2.3756    0.0970    0.0970 -999.0000    0.0970    1.0000    0.0000 -999.0000    0.6731    2.7371    6.5023 -999.0000    0.5453 -999.0000 
1282.5740    1.4054    1.4355    1.4393    8.5000    8.7626  107.2389   60.3381    0.0101    0.4288    5.9364    2.4036    0.0115    0.0115 -999.0000    0.0115    1.0000    0.0000 -999.0000    0.8153    2.8423    6.8316 -999.0000    0.5563 -999.0000 
1282.7264    1.7449    1.8280    1.8883    8.5000    8.6952  102.6627   63.0783    0.0062    0.3636    5.6269    2.4427    0.0559    0.0559 -999.0000    0.0559    1.0000    0.0000 -999.0000    0.6749    2.9689    7.2523 -999.0000    0.5457 -999.0000 
1282.8788    2.3589    2.4857    2.5670    8.5000    8.7401   98.4277   60.0810    0.0047    0.3379    5.0737    2.4799    0.0330    0.0330 -999.0000    0.0339    0.9715    0.0000 -999.0000    0.6704    3.0967    7.6795 -999.0000    0.4919 -999.0000 
1283.0312    2.6817    2.8330    2.8751    8.5000    8.7177   94.6059   61.6796    0.0045    0.2934    4.6193    2.5077    0.0318    0.0318 -999.0000    0.0318    1.0000    0.0000 -999.0000    0.5771    3.2218    8.0794 -999.0000    0.4457 -999.0000 
1283.1836    2.6156    2.7989    2.7407    8.5000    8.6727   92.0272   55.7430    0.0021    0.3099    4.4766    2.5100    0.0201    0.0201 -999.0000    0.0202    0.9973    0.0000 -999.0000    0.6414    3.3121    8.3134 -999.0000    0.4596 -999.0000 
1283.3360    2.3589    2.5830    2.4708    8.5000    8.6727   92.5539   58.7686   -0.0019    0.3066    4.5278    2.4838    0.0478    0.0478 -999.0000    0.0478    1.0000    0.0000 -999.0000    0.5679    3.2932    8.1797 -999.0000    0.4710 -999.0000 
1283.4884    2.2310    2.4791    2.3461    8.5000    8.6952   94.5206   57.7696   -0.0017    0.3166    4.6299    2.4617    0.0639    0.0639 -999.0000    0.0639    1.0000    0.0000 -999.0000    0.5518    3.2247    7.9383 -999.0000    0.5267 -999.0000 
1283.6408    2.2074    2.4607    2.3048    8.5000    8.7626   99.2492   63.9631    0.0003    0.3242    4.7345    2.4477    0.0734    0.0734 -999.0000    0.0734    1.0000    0.0000 -999.0000    0.5460    3.0711    7.5170 -999.0000    0.5523 -999.0000 
1283.7932    2.0428    2.2738    2.1218    8.5000    8.8301  101.1344   66.9314    0.0082    0.3556    4.8360    2.4547    0.0487    0.0487 -999.0000    0.0487    1.0000    0.0000 -999.0000    0.6745    3.0138    7.3979 -999.0000    0.5971 -999.0000 
1283.9456    1.8517    2.0825    1.9965    8.5000    8.9425  103.0029   68.9864    0.0116    0.3757    5.0426    2.4514    0.0406    0.0406 -999.0000    0.0406    1.0000    0.0000 -999.0000    0.7385    2.9591    7.2541 -999.0000    0.5651 -999.0000 
1284.0980    1.8036    2.0165    1.9511    8.5000    8.7851  103.5260   65.9898    0.0216    0.3809    5.3761    2.4587    0.0250    0.0250 -999.0000    0.0250    1.0000    0.0000 -999.0000    0.7741    2.9442    7.2390 -999.0000    0.5613 -999.0000 
1284.2504    1.8159    2.0245    1.9794    8.5000    8.7514  102.6344   61.9938    0.0330    0.3603    5.6239    2.4798    0.0215    0.0215 -999.0000    0.0215    1.0000    0.0000 -999.0000    0.7500    2.9698    7.3643 -999.0000    0.5328 -999.0000 
1284.4028    1.8007    1.9728    1.9627    8.5000    8.6839  102.5554   62.9358    0.0403    0.3428    5.6158    2.5054    0.0061    0.0061 -999.0000    0.0061    1.0000    0.0000 -999.0000    0.7476    2.9721    7.4462 -999.0000    0.5567 -999.0000 
