~VERSION INFORMATION
 VERS.                 2.0:   CWLS LOG ASCII STANDARD - VERSION 2.0
 WRAP.                  NO:   SINGLE LINE PER DEPTH STEP
 CREA.                 01/01/2018 01:01:01 p.m.
#CREATED USING IP VERSION 4.4.2017.257 BY UNKNOWN ON 01/01/2001 01:01:01 p.m.
~WELL INFORMATION
#MNEM.UNIT       DATA                          DESCRIPTION MNEMONIC
#---------      ---------------------------   --------------------------
 STRT    .M         416.4848                  : START DEPTH
 STOP    .M         2874.0872                 : STOP DEPTH
 STEP    .M         0.1524                    : STEP VALUE
 NULL    .      -999.0000                     : NULL VALUE
 DATE    .      28/02/2018                    : LAS file Creation Date
 WELL  .      CL-1001      : Well Name
 COMP  .      Unknown            : Company
 FLD   .      CL                 : Field
 STATE .      Unknown            : State
 COUNT .      Unknown            : Country
 API   .      Unknown            : API Number
 UWI   .                         : Unique Well Identifier (UWI)
 LOC   .      Localizacion       : Location
 TOWN  .      Unknown            : Township
 RANG  .      Unknown            : Range
 LATI  .      Unknown            : Latitude/Northing
 LONG  .      Unknown            : Longitude/Easting
 PDAT  .      Unknown            : Permanent Datum
 EPDAT .      Unknown            : Elevation of Permanent Datum
 LGMEA .      Unknown            : Log Measured from
 APDAT .      Unknown            : Elevation Above Permanent Datum
 KB    .      Unknown            : KB Elevation
 DF    .      Unknown            : DF Elevation
 GL    .      Unknown            : GL Elevation
 RWS   .      -999               : Def_Rw
 WST   .      -999               : Def_Rwt
 UTMZ  .      Unknown            : UTM Zone
 BHS   .      OPEN               : Completion Status
 RIGN  .      Unknown            : Rig Name
 CNTY  .      Unknown            : County
 PROV  .      Unknown            : Province
 MDEC  .      0                  : Magnetic Declination
 SRVC  .      Unknown            : Contractor
~CURVE INFORMATION
#MNEM               UNIT       API CODE   Curve Type Comments
#----------   --------------- ----------  ---------- -----------
 DEPTH       .M                         : Depth       
 ED_AT10     .ohm.m                     : ShalRes     (AIT-M)                 (3in)                   Array Induction Two Foot Resistivity A10
 ED_AT60     .ohm.m                     : MedRes      (AIT-M)                 (3in)                   Array Induction Two Foot Resistivity A60
 ED_AT90     .ohm.m                     : DeepRes     (AIT-M)                 (3in)                   Array Induction Two Foot Resistivity A90
 ED_BS       .in                        : BitSize     (RT)    (Borehole)              (6in)                   Bit Size
 ED_CALI     .in                        : Caliper     (HDRS-H)                (1in)                   Caliper
 ED_DTCO     .us/ft                     : Sonic       (DSLT-BB)               (6in)                   Delta-T (also called Slowness or Interval Transit Time)
 ED_GR       .gAPI                      : GammaRay    (HGNS-H)                (6in)                   Calibrated Gamma Ray
 ED_HDRA     .g/cm3                     : Drho        (HDRS-H)                (2in)                   Density Standoff Correction
 ED_NPHI     .m3/m3                     : Neutron     (HGNS-H)                (6in)                   Thermal Neutron Porosity (original Ratio Method) in Selected Lithology
 ED_PEFZ     .B/E                       : PEF         (HDRS-H)                (2in)                   Standard Resolution Formation Photoelectric Factor
 ED_RHOZ     .g/cm3                     : Density     (HDRS-H)                (2in)                   Standard Resolution Formation Density
 EV_BVW_K    .Dec                       : BVW         
 EV_BVWSXO_K .Dec                       : BVWSXO      
 EV_Perm_Mtz .mD                        :             
 EV_PHIE_K   .Dec                       : Phi         
 EV_SW_K     .Dec                       : Sw          
 EV_VDolC_K  .Dec                       :             
 EV_VLimeC_K .Dec                       :             
 EV_VWCL_K   .Dec                       : Vcl         
 FR_VP_km    .Km/seg                    :             
 FR_ZP_km    .Km/seg                    :             
 I_DRHO      .                          :             
 IND_GR      .                          :             
 IND_INV     .                          :             
~A  DEPTH  ED_AT10   ED_AT60   ED_AT90    ED_BS    ED_CALI   ED_DTCO    ED_GR    ED_HDRA   ED_NPHI   ED_PEFZ   ED_RHOZ   EV_BVW_K EV_BVWSX~ EV_Perm_~ EV_PHIE_~  EV_SW_K  EV_VDolC~ EV_VLime~ EV_VWCL_~  FR_VP_km  FR_ZP_km   I_DRHO    IND_GR   IND_INV  
# ...
2830.5008  668.9044  476.2633  412.0787    6.1250    6.1932   61.8045   17.3618    0.0549    0.0862    4.8070    2.4476    0.0123    0.0123   10.3236    0.1151    0.1069    0.0000    0.8716    0.0133    4.9317   12.0440    0.0505 -999.0000    0.2104 
2830.6532  289.2274  287.9336  246.3572    6.1250    6.1855   58.1218   18.3556    0.1052    0.0709    5.0587    2.5101    0.0159    0.0159    2.0364    0.0830    0.1916    0.0000    0.9035    0.0135    5.2442   13.2469    0.1008 -999.0000    0.0697 
2830.8056  195.7484  187.1835  167.5177    6.1250    6.2239   54.2746   16.3692    0.1670    0.0447    5.2886    2.5858    0.0193    0.0193    0.0756    0.0427    0.4521    0.0000    0.9459    0.0114    5.6159   14.7630    0.1626 -999.0000    0.0676 
2830.9580  223.9981  265.9215  214.7536    6.1250    6.2470   50.6559   14.7583    0.2103    0.0243    5.4917    2.6145    0.0170    0.0170    0.0062    0.0256    0.6667    0.0000    0.9642    0.0103    6.0171   15.9742    0.2059 -999.0000    0.0183 
2831.1104  357.8069  322.9879  277.3383    6.1250    6.3353   50.9132   14.0617    0.2342    0.0130    5.6037    2.6186    0.0150    0.0150    0.0081    0.0269    0.5568    0.0000    0.9626    0.0105    5.9867   15.6816    0.2297 -999.0000    0.1106 
2831.2628  528.0121  361.0637  310.5475    6.1250    6.7232   50.9087   15.1753    0.2265    0.0081    5.6137    2.5988    0.0142    0.0142    0.0189    0.0320    0.4426    0.0000    0.9575    0.0105    5.9872   15.4635    0.2221 -999.0000    0.2305 
2831.4152  553.7411  557.6255  611.4091    6.1250    6.9498   50.8972   16.7614    0.2212    0.0036    5.5216    2.6372    0.0101    0.0101    0.0025    0.0211    0.4775    0.0000    0.9683    0.0105    5.9885   15.6712    0.2168 -999.0000   -0.0430 
2831.5676  684.4545  549.7847  523.4021    6.1250    6.9245   52.7458   17.4726    0.2088    0.0020    5.4040    2.6971    0.0024    0.0024    0.0000    0.0024    1.0000    0.0000    0.9897    0.0080    5.7787   15.5923    0.2044 -999.0000    0.1165 
2831.7200  488.4300  432.8640  467.5056    6.1250    6.3622   53.3450   18.5332    0.1876    0.0040    5.2982    2.7390    0.0001    0.0001    0.0000    0.0001    1.0000    0.2251    0.7676    0.0072    5.7137   15.8077    0.1831 -999.0000    0.0190 
2831.8724  273.7289  315.1576  337.5891    6.1250    6.5120   53.3091   19.1898    0.1572    0.0033    5.2466    2.7318    0.0001    0.0001    0.0000    0.0001    1.0000    0.1079    0.8846    0.0073    5.7176   15.6430    0.1528 -999.0000   -0.0911 
2832.0248  203.8492  262.1125  317.1456    6.1250    6.6080   53.3247 -999.0000    0.1280    0.0058    5.2382    2.7007    0.0038    0.0038    0.0000    0.0038    1.0000    0.0000    0.9906    0.0056    5.7159   15.4600    0.1236 -999.0000   -0.1919 
2832.1772  169.0368  252.5383  323.5956    6.1250    6.2547   55.6519 -999.0000    0.1038    0.0141    5.2471    2.6643    0.0139    0.0139    0.0006    0.0162    0.8588    0.0000    0.9811    0.0027    5.4769   14.6428    0.0994 -999.0000   -0.2820 
2832.3296  122.7025  178.4115  219.5710    6.1250    6.1778   61.2973 -999.0000    0.0797    0.0261    5.2220    2.6191    0.0169    0.0169    0.0465    0.0387    0.4359    0.0000    0.9579    0.0035    4.9725   12.9747    0.0753 -999.0000   -0.2527 
2832.4820   99.4188  130.5783  166.8738    6.1250    6.1702   60.3084 -999.0000    0.0595    0.0395    5.1525    2.5661    0.0193    0.0194    0.3556    0.0584    0.3313    0.0000    0.9372    0.0044    5.0540   12.9460    0.0551 -999.0000   -0.2249 
2832.6344   83.7200  108.5822  121.7886    6.1250    6.0357   62.1866 -999.0000    0.0455    0.0521    5.0634    2.5144    0.0226    0.0226    1.5349    0.0784    0.2886    0.0000    0.9159    0.0057    4.9014   12.3179    0.0411 -999.0000   -0.1628 
2832.7868  111.9890  147.2419  150.1292    6.1250    6.0434   63.2897 -999.0000    0.0384    0.0675    4.9830    2.4801    0.0204    0.0204    5.3407    0.1008    0.2021    0.0000    0.8930    0.0062    4.8159   11.8609    0.0339 -999.0000   -0.1273 
2832.9392  170.7557  231.4796  260.8524    6.1250    6.0626   64.1153 -999.0000    0.0316    0.0784    4.9104    2.4580    0.0155    0.0155    8.4974    0.1107    0.1396    0.0000    0.8838    0.0055    4.7539   11.6368    0.0272 -999.0000   -0.1840 
2833.0916  277.9559  340.3396  446.3234    6.1250    6.0534   64.2615 -999.0000    0.0204    0.0870    4.8044    2.4346    0.0118    0.0118   11.1628    0.1170    0.1010    0.0000    0.8784    0.0046    4.7431   11.5774    0.0160 -999.0000   -0.2057 
2833.2440  542.2142  789.2176  864.9353    6.1250    6.0811   63.5044 -999.0000    0.0100    0.0930    4.7056    2.4099    0.0085    0.0085   17.4174    0.1279    0.0664    0.0000    0.8682    0.0039    4.7997   11.5887    0.0056 -999.0000   -0.2028 
2833.3964  664.2347  849.6896 1077.2670    6.1250    6.2355   59.5992 -999.0000    0.0035    0.0949    4.6314    2.3947    0.0076    0.0076   26.5249    0.1392    0.0547    0.0000    0.8569    0.0039    5.1142   12.1809    0.0000 -999.0000   -0.2100 
2833.5488 1055.2629 1188.9620 1228.7710    6.1250    6.1686   59.9255 -999.0000    0.0036    0.0950    4.6349    2.4040    0.0071    0.0071   26.2607    0.1389    0.0513    0.0000    0.8563    0.0048    5.0863   12.1177    0.0000 -999.0000   -0.0661 
2833.7012 1088.1591 1107.5300 1093.1370    6.1250    6.2193   59.5193 -999.0000    0.0081    0.0831    4.7414    2.4285    0.0076    0.0076   10.5864    0.1157    0.0653    0.0000    0.8779    0.0064    5.1210   12.4827    0.0036 -999.0000   -0.0020 
2833.8536  948.8916 1201.3800  936.0892    6.1250    6.2839   56.8855 -999.0000    0.0399    0.0693    4.9552    2.4927    0.0082    0.0082    1.5966    0.0791    0.1032    0.0000    0.9143    0.0066    5.3581   13.6027    0.0355 -999.0000    0.0059 
2834.0060 1034.9510  738.5615  732.0316    6.1250    6.3069   52.0785 -999.0000    0.0963    0.0605    5.1965    2.5760    0.0092    0.0092    0.3418    0.0575    0.1604    0.0000    0.9374    0.0051    5.8527   15.2304    0.0918 -999.0000    0.1504 
2834.1584  571.7089  458.9113  457.5164    6.1250    6.4659   52.0300 -999.0000    0.1588    0.0633    5.3667    2.6565    0.0117    0.0117    0.2979    0.0560    0.2086    0.1621    0.7773    0.0047    5.8582   15.5174    0.1544 -999.0000    0.0968 
2834.3108  265.4146  304.7848  302.9047    6.1250    6.3945   52.0600 -999.0000    0.1945    0.0719    5.4332    2.6927    0.0143    0.0143    0.3300    0.0571    0.2511    0.3125    0.6194    0.0110    5.8548   15.7721    0.1900 -999.0000   -0.0574 
2834.4632  177.2374  184.2088  181.7406    6.1250    6.5466   51.1752 -999.0000    0.2080    0.0724    5.4401    2.7151    0.0185    0.0185 -999.0000    0.0565    0.3278    0.4251    0.5184    0.0000    5.9560   16.2906    0.2035 -999.0000   -0.0109 
2834.6156  219.9050  211.0162  204.9081    6.1250    6.4359   52.2158 -999.0000    0.2035    0.0717    5.4321    2.7195    0.0174    0.0174 -999.0000    0.0577    0.3025    0.3826    0.5597    0.0000    5.8373   15.8549    0.1991 -999.0000    0.0307 
2834.7680  365.0922  326.1171  345.8860    6.1250    6.4037   52.1485 -999.0000    0.1984    0.0716    5.4321    2.7170    0.0134    0.0134 -999.0000    0.0553    0.2426    0.4503    0.4944    0.0000    5.8448   16.0480    0.1939 -999.0000    0.0235 
2834.9204  478.0601  394.6040  394.7794    6.1250    6.3576   52.1985 -999.0000    0.1932    0.0714    5.4415    2.7034    0.0126    0.0126 -999.0000    0.0580    0.2165    0.3747    0.5673    0.0000    5.8392   15.8345    0.1887 -999.0000    0.0831 
2835.0728  710.3247  593.4391  467.6040    6.1250    6.5097   52.9761 -999.0000    0.1900    0.0698    5.4206    2.7166    0.0115    0.0115 -999.0000    0.0590    0.1955    0.3081    0.6329    0.0000    5.7535   15.4536    0.1856 -999.0000    0.1816 
2835.2252 1050.4500  551.8721  625.6423 -999.0000 -999.0000 -999.0000 -999.0000 -999.0000 -999.0000 -999.0000 -999.0000 -999.0000 -999.0000 -999.0000 -999.0000 -999.0000 -999.0000 -999.0000 -999.0000 -999.0000 -999.0000    0.1598 -999.0000    0.2250 
