~VERSION INFORMATION
 VERS.                 2.0:   CWLS LOG ASCII STANDARD - VERSION 2.0
 WRAP.                  NO:   SINGLE LINE PER DEPTH STEP
 CREA.                 01/01/2018 01:01:01 p.m.
#CREATED USING IP VERSION 4.4.2017.257 BY UNKNOWN ON 01/01/2001 01:01:01 p.m.
~WELL INFORMATION
#MNEM.UNIT       DATA                          DESCRIPTION MNEMONIC
#---------      ---------------------------   --------------------------
 STRT    .M         416.4848                  : START DEPTH
 STOP    .M         2874.0872                 : STOP DEPTH
 STEP    .M         0.1524                    : STEP VALUE
 NULL    .      -999.0000                     : NULL VALUE
 DATE    .      28/02/2018                    : LAS file Creation Date
 WELL  .      CL-1001      : Well Name
 COMP  .      Unknown            : Company
 FLD   .      CL                 : Field
 STATE .      Unknown            : State
 COUNT .      Unknown            : Country
 API   .      Unknown            : API Number
 UWI   .                         : Unique Well Identifier (UWI)
 LOC   .      Localizacion       : Location
 TOWN  .      Unknown            : Township
 RANG  .      Unknown            : Range
 LATI  .      Unknown            : Latitude/Northing
 LONG  .      Unknown            : Longitude/Easting
 PDAT  .      Unknown            : Permanent Datum
 EPDAT .      Unknown            : Elevation of Permanent Datum
 LGMEA .      Unknown            : Log Measured from
 APDAT .      Unknown            : Elevation Above Permanent Datum
 KB    .      Unknown            : KB Elevation
 DF    .      Unknown            : DF Elevation
 GL    .      Unknown            : GL Elevation
 RWS   .      -999               : Def_Rw
 WST   .      -999               : Def_Rwt
 UTMZ  .      Unknown            : UTM Zone
 BHS   .      OPEN               : Completion Status
 RIGN  .      Unknown            : Rig Name
 CNTY  .      Unknown            : County
 PROV  .      Unknown            : Province
 MDEC  .      0                  : Magnetic Declination
 SRVC  .      Unknown            : Contractor
~CURVE INFORMATION
#MNEM               UNIT       API CODE   Curve Type Comments
#----------   --------------- ----------  ---------- -----------
 DEPTH       .M                         : Depth       
 ED_AT10     .ohm.m                     : ShalRes     (AIT-M)                 (3in)                   Array Induction Two Foot Resistivity A10
 ED_AT60     .ohm.m                     : MedRes      (AIT-M)                 (3in)                   Array Induction Two Foot Resistivity A60
 ED_AT90     .ohm.m                     : DeepRes     (AIT-M)                 (3in)                   Array Induction Two Foot Resistivity A90
 ED_BS       .in                        : BitSize     (RT)    (Borehole)              (6in)                   Bit Size
 ED_CALI     .in                        : Caliper     (HDRS-H)                (1in)                   Caliper
 ED_DTCO     .us/ft                     : Sonic       (DSLT-BB)               (6in)                   Delta-T (also called Slowness or Interval Transit Time)
 ED_GR       .gAPI                      : GammaRay    (HGNS-H)                (6in)                   Calibrated Gamma Ray
 ED_HDRA     .g/cm3                     : Drho        (HDRS-H)                (2in)                   Density Standoff Correction
 ED_NPHI     .m3/m3                     : Neutron     (HGNS-H)                (6in)                   Thermal Neutron Porosity (original Ratio Method) in Selected Lithology
 ED_PEFZ     .B/E                       : PEF         (HDRS-H)                (2in)                   Standard Resolution Formation Photoelectric Factor
 ED_RHOZ     .g/cm3                     : Density     (HDRS-H)                (2in)                   Standard Resolution Formation Density
 EV_BVW_K    .Dec                       : BVW         
 EV_BVWSXO_K .Dec                       : BVWSXO      
 EV_Perm_Mtz .mD                        :             
 EV_PHIE_K   .Dec                       : Phi         
 EV_SW_K     .Dec                       : Sw          
 EV_VDolC_K  .Dec                       :             
 EV_VLimeC_K .Dec                       :             
 EV_VWCL_K   .Dec                       : Vcl         
 FR_VP_km    .Km/seg                    :             
 FR_ZP_km    .Km/seg                    :             
 I_DRHO      .                          :             
 IND_GR      .                          :             
 IND_INV     .                          :             
~A  DEPTH  ED_AT10   ED_AT60   ED_AT90    ED_BS    ED_CALI   ED_DTCO    ED_GR    ED_HDRA   ED_NPHI   ED_PEFZ   ED_RHOZ   EV_BVW_K EV_BVWSX~ EV_Perm_~ EV_PHIE_~  EV_SW_K  EV_VDolC~ EV_VLime~ EV_VWCL_~  FR_VP_km  FR_ZP_km   I_DRHO    IND_GR   IND_INV  
# ...
1899.0320    2.3557    2.4948    2.4992    8.5000    8.7851   91.9090   61.7090    0.0084    0.3323    4.5827    2.5839    0.0001    0.0001 -999.0000    0.0001    0.8048 -999.0000 -999.0000    0.8949    3.3163    8.5692 -999.0000    0.4990 -999.0000 
1899.1844    2.5317    2.7134    2.6987    8.5000    8.7177   89.3821   57.9125    0.0196    0.3248    4.4873    2.6162    0.0001    0.0001 -999.0000    0.0001    0.7068 -999.0000 -999.0000    0.9437    3.4101    8.9215 -999.0000    0.4489 -999.0000 
1899.3368    2.7889    3.0018    2.9251    8.5000    8.8301   88.1102   56.5423    0.0181    0.2814    4.3410    2.6087    0.0001    0.0001 -999.0000    0.0001    0.7977 -999.0000 -999.0000    0.7714    3.4593    9.0243 -999.0000    0.4454 -999.0000 
1899.4892    3.0579    3.1708    3.1229    8.5000    8.8975   85.4087   51.7470    0.0103    0.2582    4.3430    2.5723    0.0001    0.0001 -999.0000    0.0001    0.9557 -999.0000 -999.0000    0.6031    3.5687    9.1797 -999.0000    0.4510 -999.0000 
1899.6416    2.9740    3.1925    3.1600    8.5000    8.8301   83.3505   57.3416    0.0041    0.2813    4.6523    2.5340    0.0119    0.0119 -999.0000    0.0126    0.9459 -999.0000 -999.0000    0.5958    3.6568    9.2666 -999.0000    0.5232 -999.0000 
1899.7940    2.8037    3.0645    3.0331    8.5000    8.7626   85.6212   59.1685    0.0075    0.3155    5.1909    2.5277    0.0001    0.0001 -999.0000    0.0001    0.8445 -999.0000 -999.0000    0.7027    3.5599    8.9983 -999.0000    0.5242 -999.0000 
1899.9464    2.7162    2.9550    2.9350    8.5000    8.7851   87.9118   62.1369    0.0113    0.3207    5.5388    2.5373    0.0001    0.0001 -999.0000    0.0001    0.8241 -999.0000 -999.0000    0.7441    3.4671    8.7973 -999.0000    0.4885 -999.0000 
1900.0988    2.8910    3.1810    3.1637    8.5000    8.8076   89.6823   60.5384    0.0134    0.3143    5.4137    2.5527    0.0001    0.0001 -999.0000    0.0001    0.7514 -999.0000 -999.0000    0.7572    3.3987    8.6758 -999.0000    0.4587 -999.0000 
1900.2512    3.0691    3.4169    3.4142    8.5000    8.9087   90.6164   63.9634    0.0170    0.3142    5.0103    2.5660    0.0001    0.0001 -999.0000    0.0001    0.6691 -999.0000 -999.0000    0.7879    3.3636    8.6311 -999.0000    0.4653 -999.0000 
1900.4036    2.9573    3.3175    3.3200    8.5000    8.9200   91.1590   66.2469    0.0140    0.3209    4.8459    2.5518    0.0001    0.0001 -999.0000    0.0001    0.6963 -999.0000 -999.0000    0.7787    3.3436    8.5321 -999.0000    0.5100 -999.0000 
1900.5560    2.9034    3.2306    3.2342    8.5000    8.8301   91.3761   64.6485    0.0126    0.3443    5.1279    2.5463    0.0001    0.0001 -999.0000    0.0001    0.6553 -999.0000 -999.0000    0.8493    3.3357    8.4937 -999.0000    0.5393 -999.0000 
1900.7084    2.9093    3.2074    3.2124    8.5000    8.7177   90.9340   61.2234    0.0033    0.3236    5.5901    2.5410    0.0001    0.0001 -999.0000    0.0001    0.7345 -999.0000 -999.0000    0.7629    3.3519    8.5171 -999.0000    0.5731 -999.0000 
1900.8608    2.9075    3.1674    3.2025    8.5000    8.6727   91.7143   55.9715   -0.0002    0.3524    5.7967    2.5553    0.0001    0.0001 -999.0000    0.0001    0.6251 -999.0000 -999.0000    0.8992    3.3234    8.4921 -999.0000    0.5917 -999.0000 
1901.0132    2.8262    3.0971    3.1625    8.5000    8.7851   91.0151   58.6832   -0.0021    0.3353    5.5880    2.5525    0.0001    0.0001 -999.0000    0.0001    0.6844 -999.0000 -999.0000    0.8316    3.3489    8.5479 -999.0000    0.6057 -999.0000 
1901.1656    2.7860    3.0220    3.0722    8.5000    8.8750   90.6376   59.5398    0.0008    0.3493    5.1764    2.5468    0.0001    0.0001 -999.0000    0.0001    0.6750 -999.0000 -999.0000    0.8680    3.3628    8.5645 -999.0000    0.6354 -999.0000 
1901.3180    2.7323    2.9585    3.0189    8.5000    8.9200   90.4900   64.3348    0.0013    0.3109    4.8739    2.5391    0.0001    0.0001 -999.0000    0.0001    0.8361 -999.0000 -999.0000    0.7131    3.3683    8.5524 -999.0000    0.5984 -999.0000 
1901.4704    2.7125    2.8885    2.9158    8.5000    8.8975   90.2612   65.0195    0.0016    0.2911    4.7863    2.5424    0.0001    0.0001 -999.0000    0.0001    0.9493 -999.0000 -999.0000    0.6503    3.3769    8.5855 -999.0000    0.5046 -999.0000 
1901.6228    2.6987    2.8545    2.8904    8.5000    8.8525   90.1147   63.6207    0.0022    0.2814    4.7116    2.5519    0.0001    0.0001 -999.0000    0.0001    0.9764 -999.0000 -999.0000    0.6378    3.3824    8.6313 -999.0000    0.4220 -999.0000 
1901.7752    2.6856    2.8503    2.8815    8.5000    8.8750   90.4484   64.0775    0.0063    0.2932    4.4947    2.5745    0.0001    0.0001 -999.0000    0.0001    0.8519 -999.0000 -999.0000    0.7333    3.3699    8.6758 -999.0000    0.3915 -999.0000 
1901.9276    2.7013    2.8785    2.8933    8.5000    8.9200   90.1455   63.1644    0.0065    0.2982    4.2247    2.5827    0.0001    0.0001 -999.0000    0.0001    0.8080 -999.0000 -999.0000    0.7700    3.3812    8.7326 -999.0000    0.4473 -999.0000 
1902.0800    2.6600    2.8880    2.9015    8.5000    8.8975   90.5425   65.5336    0.0044    0.2930    4.1526    2.5723    0.0001    0.0001 -999.0000    0.0001    0.8530 -999.0000 -999.0000    0.7273    3.3664    8.6594 -999.0000    0.5017 -999.0000 
1902.2324    2.6541    2.9152    2.8684    8.5000    8.9649   90.9100   63.1929    0.0032    0.2815    4.2717    2.5601    0.0001    0.0001 -999.0000    0.0001    0.9541 -999.0000 -999.0000    0.6577    3.3528    8.5836 -999.0000    0.4888 -999.0000 
1902.3848    2.6999    2.9759    2.9262    8.5000    8.7626   89.9276   59.7677    0.0037    0.2868    4.4411    2.5584    0.0001    0.0001 -999.0000    0.0001    0.9146 -999.0000 -999.0000    0.6726    3.3894    8.6714 -999.0000    0.4573 -999.0000 
1902.5372    2.8551    3.1682    3.1134    8.5000    8.7401   89.2977   59.7676    0.0041    0.2934    4.5444    2.5631    0.0001    0.0001 -999.0000    0.0001    0.8178 -999.0000 -999.0000    0.7069    3.4133    8.7485 -999.0000    0.4293 -999.0000 
1902.6896    3.0111    3.4437    3.2124    8.5000    8.8301   85.8522   56.8563    0.0039    0.2906    4.6828    2.5600    0.0001    0.0001 -999.0000    0.0001    0.8124 -999.0000 -999.0000    0.6897    3.5503    9.0887 -999.0000    0.4582 -999.0000 
1902.8420    3.0220    3.4866    3.4860    8.5000    8.9087   84.7102   61.7943    0.0049    0.2932    4.9876    2.5484    0.0001    0.0001 -999.0000    0.0001    0.7685 -999.0000 -999.0000    0.6719    3.5982    9.1694 -999.0000    0.4645 -999.0000 
1902.9944    2.9307    3.4735    3.5533    8.5000    9.0549   86.4684   57.2274    0.0076    0.2952    5.3694    2.5413    0.0001    0.0001 -999.0000    0.0001    0.7650 -999.0000 -999.0000    0.6622    3.5250    8.9582 -999.0000    0.4844 -999.0000 
1903.1468    2.9809    3.3495    3.5593    8.5000    8.8750   86.2566   59.2827    0.0110    0.2973    5.6240    2.5416    0.0001    0.0001 -999.0000    0.0001    0.7541 -999.0000 -999.0000    0.6707    3.5336    8.9812 -999.0000    0.5005 -999.0000 
1903.2992    2.9612    2.9989    3.3450    8.5000    8.8301   86.2529   55.4866    0.0138    0.2856    5.5562    2.5663    0.0001    0.0001 -999.0000    0.0001    0.7836 -999.0000 -999.0000    0.6867    3.5338    9.0688 -999.0000    0.5099 -999.0000 
1903.4516    2.7570    3.1688    3.1715    8.5000    8.9762   85.0254   55.4865    0.0111    0.2592    5.1746    2.5799    0.0001    0.0001 -999.0000    0.0001    0.9086 -999.0000 -999.0000    0.6247    3.5848    9.2485 -999.0000    0.4948 -999.0000 
1903.6040    2.6251    2.7276    2.7864    8.5000    8.7851   82.8756   55.9430    0.0068    0.2698    4.8308    2.5652    0.0001    0.0001 -999.0000    0.0001    1.0000 -999.0000 -999.0000    0.6278    3.6778    9.4343 -999.0000    0.4649 -999.0000 
1903.7564    2.1161    2.4426    2.4305    8.5000    8.7851   80.5862   59.3396    0.0043    0.2710    4.7335    2.5143    0.0380    0.0380 -999.0000    0.0380    1.0000 -999.0000 -999.0000    0.5126    3.7823    9.5097 -999.0000    0.4627 -999.0000 
