~VERSION INFORMATION
 VERS.                 2.0:   CWLS LOG ASCII STANDARD - VERSION 2.0
 WRAP.                  NO:   SINGLE LINE PER DEPTH STEP
 CREA.                 01/01/2018 01:01:01 p.m.
#CREATED USING IP VERSION 4.4.2017.257 BY UNKNOWN ON 01/01/2001 01:01:01 p.m.
~WELL INFORMATION
#MNEM.UNIT       DATA                          DESCRIPTION MNEMONIC
#---------      ---------------------------   --------------------------
 STRT    .M         416.4848                  : START DEPTH
 STOP    .M         2874.0872                 : STOP DEPTH
 STEP    .M         0.1524                    : STEP VALUE
 NULL    .      -999.0000                     : NULL VALUE
 DATE    .      28/02/2018                    : LAS file Creation Date
 WELL  .      CL-1001      : Well Name
 COMP  .      Unknown            : Company
 FLD   .      CL                 : Field
 STATE .      Unknown            : State
 COUNT .      Unknown            : Country
 API   .      Unknown            : API Number
 UWI   .                         : Unique Well Identifier (UWI)
 LOC   .      Localizacion       : Location
 TOWN  .      Unknown            : Township
 RANG  .      Unknown            : Range
 LATI  .      Unknown            : Latitude/Northing
 LONG  .      Unknown            : Longitude/Easting
 PDAT  .      Unknown            : Permanent Datum
 EPDAT .      Unknown            : Elevation of Permanent Datum
 LGMEA .      Unknown            : Log Measured from
 APDAT .      Unknown            : Elevation Above Permanent Datum
 KB    .      Unknown            : KB Elevation
 DF    .      Unknown            : DF Elevation
 GL    .      Unknown            : GL Elevation
 RWS   .      -999               : Def_Rw
 WST   .      -999               : Def_Rwt
 UTMZ  .      Unknown            : UTM Zone
 BHS   .      OPEN               : Completion Status
 RIGN  .      Unknown            : Rig Name
 CNTY  .      Unknown            : County
 PROV  .      Unknown            : Province
 MDEC  .      0                  : Magnetic Declination
 SRVC  .      Unknown            : Contractor
~CURVE INFORMATION
#MNEM               UNIT       API CODE   Curve Type Comments
#----------   --------------- ----------  ---------- -----------
 DEPTH       .M                         : Depth       
 ED_AT10     .ohm.m                     : ShalRes     (AIT-M)                 (3in)                   Array Induction Two Foot Resistivity A10
 ED_AT60     .ohm.m                     : MedRes      (AIT-M)                 (3in)                   Array Induction Two Foot Resistivity A60
 ED_AT90     .ohm.m                     : DeepRes     (AIT-M)                 (3in)                   Array Induction Two Foot Resistivity A90
 ED_BS       .in                        : BitSize     (RT)    (Borehole)              (6in)                   Bit Size
 ED_CALI     .in                        : Caliper     (HDRS-H)                (1in)                   Caliper
 ED_DTCO     .us/ft                     : Sonic       (DSLT-BB)               (6in)                   Delta-T (also called Slowness or Interval Transit Time)
 ED_GR       .gAPI                      : GammaRay    (HGNS-H)                (6in)                   Calibrated Gamma Ray
 ED_HDRA     .g/cm3                     : Drho        (HDRS-H)                (2in)                   Density Standoff Correction
 ED_NPHI     .m3/m3                     : Neutron     (HGNS-H)                (6in)                   Thermal Neutron Porosity (original Ratio Method) in Selected Lithology
 ED_PEFZ     .B/E                       : PEF         (HDRS-H)                (2in)                   Standard Resolution Formation Photoelectric Factor
 ED_RHOZ     .g/cm3                     : Density     (HDRS-H)                (2in)                   Standard Resolution Formation Density
 EV_BVW_K    .Dec                       : BVW         
 EV_BVWSXO_K .Dec                       : BVWSXO      
 EV_Perm_Mtz .mD                        :             
 EV_PHIE_K   .Dec                       : Phi         
 EV_SW_K     .Dec                       : Sw          
 EV_VDolC_K  .Dec                       :             
 EV_VLimeC_K .Dec                       :             
 EV_VWCL_K   .Dec                       : Vcl         
 FR_VP_km    .Km/seg                    :             
 FR_ZP_km    .Km/seg                    :             
 I_DRHO      .                          :             
 IND_GR      .                          :             
 IND_INV     .                          :             
~A  DEPTH  ED_AT10   ED_AT60   ED_AT90    ED_BS    ED_CALI   ED_DTCO    ED_GR    ED_HDRA   ED_NPHI   ED_PEFZ   ED_RHOZ   EV_BVW_K EV_BVWSX~ EV_Perm_~ EV_PHIE_~  EV_SW_K  EV_VDolC~ EV_VLime~ EV_VWCL_~  FR_VP_km  FR_ZP_km   I_DRHO    IND_GR   IND_INV  
# ...
 967.5632    4.8028    4.8196    5.0473    8.5000    8.7626   86.0064   61.7366    0.0134    0.2861    4.3191    2.4632    0.0521    0.0521    0.0444    0.0808    0.6454    0.0000 -999.0000    0.4465    3.5439    8.7292 -999.0000    0.5296 -999.0000 
 967.7156    4.1034    4.2272    4.4356    8.5000    8.8301   86.8160   61.2800    0.0121    0.2856    4.3256    2.4414    0.0736    0.0736    0.1998    0.1030    0.7148    0.0000 -999.0000    0.3935    3.5109    8.5713 -999.0000    0.5428 -999.0000 
 967.8680    3.7761    3.9326    4.1147    8.5000    8.8301   88.6291   65.3329    0.0181    0.3348    4.6485    2.4299    0.0546    0.0546    0.0520    0.0853    0.6396    0.0000 -999.0000    0.5421    3.4391    8.3567 -999.0000    0.5832 -999.0000 
 968.0204    3.8501    3.9604    4.1967    8.5000    8.8188   92.7437   66.6173    0.0225    0.3539    5.0333    2.4296    0.0440    0.0440    0.0173    0.0744    0.5908    0.0000 -999.0000    0.6093    3.2865    7.9849 -999.0000    0.6526 -999.0000 
 968.1728    3.8715    3.9978    4.2389    8.5000    8.8301   94.5927   67.3023    0.0224    0.3753    5.2078    2.4381    0.0292    0.0292    0.0020    0.0537    0.5446    0.0000 -999.0000    0.7055    3.2222    7.8560 -999.0000    0.6760 -999.0000 
 968.3252    3.9237    3.9838    4.2290    8.5000    8.8750   93.2387   66.3034    0.0095    0.3496    5.1097    2.4126    0.0555    0.0555    0.0733    0.0935    0.5941    0.0000 -999.0000    0.5541    3.2690    7.8869 -999.0000    0.6576 -999.0000 
 968.4776    4.1174    3.9545    4.2387    8.5000    8.9649   93.0276   65.1618    0.0042    0.3648    4.9873    2.3880    0.0609    0.0609    0.1904    0.1084    0.5620    0.0000 -999.0000    0.5507    3.2764    7.8242 -999.0000    0.6550 -999.0000 
 968.6300    4.2950    3.9770    4.2517    8.5000    8.7851   92.3333   61.4795    0.0197    0.3528    5.1164    2.3737    0.0749    0.0749    0.6533    0.1295    0.5788    0.0000 -999.0000    0.4742    3.3011    7.8359 -999.0000    0.6242 -999.0000 
 968.7824    4.3550    4.0146    4.2653    8.5000    8.7177   92.1960   61.3942    0.0419    0.3726    5.4668    2.3749    0.0634    0.0634    0.3194    0.1165    0.5444    0.0000 -999.0000    0.5476    3.3060    7.8515 -999.0000    0.6366 -999.0000 
 968.9348    4.4281    4.0395    4.2397    8.5000    8.6952   91.2459   58.8539    0.0627    0.3841    5.8344    2.3738    0.0585    0.0585    0.2312    0.1107    0.5279    0.0000 -999.0000    0.5862    3.3404    7.9294 -999.0000    0.6364 -999.0000 
 969.0872    4.6000    4.0436    4.1441    8.5000    8.5378   91.4719   57.0559    0.0722    0.3844    6.1034    2.3746    0.0590    0.0590    0.2186    0.1099    0.5370    0.0000 -999.0000    0.5889    3.3322    7.9125 -999.0000    0.6386 -999.0000 
 969.2396    4.8448    4.2145    4.1928    8.5000    8.5603   90.3771   52.1463    0.0726    0.3567    6.3230    2.3646    0.0783    0.0783    1.0849    0.1361    0.5759    0.0000 -999.0000    0.4667    3.3725    7.9747 -999.0000    0.5678 -999.0000 
 969.3920    4.9984    4.3083    4.2039    8.5000    8.3804   90.0971   51.2615    0.0733    0.3256    6.5596    2.3556    0.1022    0.1022    4.1869    0.1634    0.6254    0.0000 -999.0000    0.3348    3.3830    7.9691 -999.0000    0.5191 -999.0000 
 969.5444    5.1393    4.3975    4.2456    8.5000    8.4479   89.0598   53.8590    0.0742    0.3157    6.7823    2.3538    0.1091    0.1091    5.2350    0.1710    0.6380    0.0000 -999.0000    0.2954    3.4224    8.0557 -999.0000    0.5371 -999.0000 
 969.6968    5.7483    4.6680    4.3640    8.5000    8.5153   85.7948   56.2564    0.0830    0.3061    6.9322    2.3955    0.0898    0.0898    1.2412    0.1360    0.6603    0.0000 -999.0000    0.3590    3.5527    8.5105 -999.0000    0.5297 -999.0000 
 969.8492    6.9488    5.2974    4.9614    8.5000    8.4141   79.9562   51.5469    0.0836    0.2898    6.9921    2.4330    0.0700    0.0700    0.3274    0.1084    0.6457    0.0000 -999.0000    0.3887    3.8121    9.2748 -999.0000    0.4998 -999.0000 
 970.0016    7.2354    5.4177    5.1161    8.5000    8.4704   77.3827   50.5480    0.0770    0.2683    6.9738    2.4407    0.0777    0.0777    0.6085    0.1136    0.6846    0.0000 -999.0000    0.3301    3.9389    9.6134 -999.0000    0.4252 -999.0000 
 970.1540    6.1120    4.7414    4.4972    8.5000    8.4254   79.0939   47.1516    0.0647    0.2530    6.9585    2.3949    0.1268    0.1268    5.7904    0.1629    0.7783    0.0000 -999.0000    0.1680    3.8536    9.2290 -999.0000    0.4374 -999.0000 
 970.3064    5.2170    4.2193    4.0618    8.5000    8.3804   85.5226   55.7427    0.0657    0.2670    6.9873    2.3729    0.1369    0.1369    7.9702    0.1762    0.7773    0.0000 -999.0000    0.1665    3.5640    8.4568 -999.0000    0.4789 -999.0000 
 970.4588    4.5128    3.9083    3.7736    8.5000    8.4029   89.8958   57.5409    0.0712    0.2946    7.0700    2.3854    0.1131    0.1131    2.2934    0.1487    0.7609    0.0000 -999.0000    0.2944    3.3906    8.0880 -999.0000    0.5189 -999.0000 
 970.6112    4.2250    3.7149    3.5731    8.5000    8.3355   91.4374   63.2211    0.0751    0.3464    7.1292    2.4192    0.0616    0.0616    0.0749    0.0894    0.6882    0.0000 -999.0000    0.5582    3.3334    8.0644 -999.0000    0.5644 -999.0000 
 970.7636    4.1547    3.8316    3.5654    8.5000    8.4479   88.5870   59.4247    0.0665    0.3720    7.1244    2.4104    0.0527    0.0527    0.0474    0.0828    0.6363    0.0000 -999.0000    0.6291    3.4407    8.2936 -999.0000    0.5554 -999.0000 
 970.9160    4.6163    4.1764    3.7868    8.5000    8.7401   84.6353   59.6814    0.0608    0.3408    7.0430    2.3978    0.0749    0.0749    0.3806    0.1135    0.6603    0.0000 -999.0000    0.4881    3.6013    8.6354 -999.0000    0.5369 -999.0000 
 971.0684    5.1812    4.4325    3.9620    8.5000    8.6614   83.3541   56.5989    0.0611    0.3041    6.9160    2.4107    0.0880    0.0880    0.6645    0.1226    0.7175    0.0000 -999.0000    0.3876    3.6567    8.8153 -999.0000    0.5198 -999.0000 
 971.2208    4.9891    4.3796    3.8935    8.5000    8.2455   82.6771   56.7418    0.0621    0.2564    6.7827    2.4483    0.0977    0.0977    0.3133    0.1104    0.8853    0.0000 -999.0000    0.3055    3.6866    9.0260 -999.0000    0.5412 -999.0000 
 971.3732    4.6560    4.3394    3.9396    8.5000    8.4029   82.8623   56.6846    0.0529    0.2700    6.7271    2.4622    0.0754    0.0754    0.0795    0.0890    0.8471    0.0000 -999.0000    0.3867    3.6784    9.0571 -999.0000    0.5393 -999.0000 
 971.5256    4.5439    4.4319    4.1061    8.5000    8.6052   85.9915   57.2553    0.0432    0.2568    6.8376    2.4642    0.0815    0.0815    0.1280    0.0946    0.8622    0.0000 -999.0000    0.3443    3.5445    8.7346 -999.0000    0.5162 -999.0000 
 971.6780    4.5548    4.6780    4.2344    8.5000    8.5603   82.7281   56.1138    0.0419    0.2516    7.0587    2.4753    0.0749    0.0749    0.0887    0.0867    0.8643    0.0000 -999.0000    0.3519    3.6844    9.1197 -999.0000    0.4699 -999.0000 
 971.8304    3.8743    3.8666    3.6096    8.5000    8.3804   83.0085   57.3127    0.0529    0.2255    7.2374    2.5098    0.0681    0.0681    0.0172    0.0681    1.0000    0.0000 -999.0000    0.3400    3.6719    9.2158 -999.0000    0.4924 -999.0000 
 971.9828    2.9667    3.2099    3.0114    8.5000    8.4029   85.8029   62.1078    0.0557    0.2567    7.2968    2.5199    0.0406    0.0406    0.0006    0.0406    1.0000    0.0000 -999.0000    0.4747    3.5523    8.9513 -999.0000    0.5085 -999.0000 
 972.1352    2.4993    2.7614    2.6591    8.5000    8.6727   92.0521   69.1006    0.0435    0.3570    7.3410    2.4866    0.0146    0.0146    0.0000    0.0165    0.8817    0.0000 -999.0000    0.7541    3.3112    8.2335 -999.0000    0.5646 -999.0000 
 972.2876    2.3709    2.6683    2.6173    8.5000    8.8301   95.1393   67.5022    0.0288    0.3990    7.4637    2.4486    0.0098    0.0098    0.0000    0.0117    0.8354    0.0000 -999.0000    0.8146    3.2037    7.8445 -999.0000    0.5852 -999.0000 
