~VERSION INFORMATION
 VERS.                 2.0:   CWLS LOG ASCII STANDARD - VERSION 2.0
 WRAP.                  NO:   SINGLE LINE PER DEPTH STEP
 CREA.                 01/01/2018 01:01:01 p.m.
#CREATED USING IP VERSION 4.4.2017.257 BY UNKNOWN ON 01/01/2001 01:01:01 p.m.
~WELL INFORMATION
#MNEM.UNIT       DATA                          DESCRIPTION MNEMONIC
#---------      ---------------------------   --------------------------
 STRT    .M         416.4848                  : START DEPTH
 STOP    .M         2874.0872                 : STOP DEPTH
 STEP    .M         0.1524                    : STEP VALUE
 NULL    .      -999.0000                     : NULL VALUE
 DATE    .      28/02/2018                    : LAS file Creation Date
 WELL  .      CL-1001      : Well Name
 COMP  .      Unknown            : Company
 FLD   .      CL                 : Field
 STATE .      Unknown            : State
 COUNT .      Unknown            : Country
 API   .      Unknown            : API Number
 UWI   .                         : Unique Well Identifier (UWI)
 LOC   .      Localizacion       : Location
 TOWN  .      Unknown            : Township
 RANG  .      Unknown            : Range
 LATI  .      Unknown            : Latitude/Northing
 LONG  .      Unknown            : Longitude/Easting
 PDAT  .      Unknown            : Permanent Datum
 EPDAT .      Unknown            : Elevation of Permanent Datum
 LGMEA .      Unknown            : Log Measured from
 APDAT .      Unknown            : Elevation Above Permanent Datum
 KB    .      Unknown            : KB Elevation
 DF    .      Unknown            : DF Elevation
 GL    .      Unknown            : GL Elevation
 RWS   .      -999               : Def_Rw
 WST   .      -999               : Def_Rwt
 UTMZ  .      Unknown            : UTM Zone
 BHS   .      OPEN               : Completion Status
 RIGN  .      Unknown            : Rig Name
 CNTY  .      Unknown            : County
 PROV  .      Unknown            : Province
 MDEC  .      0                  : Magnetic Declination
 SRVC  .      Unknown            : Contractor
~CURVE INFORMATION
#MNEM               UNIT       API CODE   Curve Type Comments
#----------   --------------- ----------  ---------- -----------
 DEPTH       .M                         : Depth       
 ED_AT10     .ohm.m                     : ShalRes     (AIT-M)                 (3in)                   Array Induction Two Foot Resistivity A10
 ED_AT60     .ohm.m                     : MedRes      (AIT-M)                 (3in)                   Array Induction Two Foot Resistivity A60
 ED_AT90     .ohm.m                     : DeepRes     (AIT-M)                 (3in)                   Array Induction Two Foot Resistivity A90
 ED_BS       .in                        : BitSize     (RT)    (Borehole)              (6in)                   Bit Size
 ED_CALI     .in                        : Caliper     (HDRS-H)                (1in)                   Caliper
 ED_DTCO     .us/ft                     : Sonic       (DSLT-BB)               (6in)                   Delta-T (also called Slowness or Interval Transit Time)
 ED_GR       .gAPI                      : GammaRay    (HGNS-H)                (6in)                   Calibrated Gamma Ray
 ED_HDRA     .g/cm3                     : Drho        (HDRS-H)                (2in)                   Density Standoff Correction
 ED_NPHI     .m3/m3                     : Neutron     (HGNS-H)                (6in)                   Thermal Neutron Porosity (original Ratio Method) in Selected Lithology
 ED_PEFZ     .B/E                       : PEF         (HDRS-H)                (2in)                   Standard Resolution Formation Photoelectric Factor
 ED_RHOZ     .g/cm3                     : Density     (HDRS-H)                (2in)                   Standard Resolution Formation Density
 EV_BVW_K    .Dec                       : BVW         
 EV_BVWSXO_K .Dec                       : BVWSXO      
 EV_Perm_Mtz .mD                        :             
 EV_PHIE_K   .Dec                       : Phi         
 EV_SW_K     .Dec                       : Sw          
 EV_VDolC_K  .Dec                       :             
 EV_VLimeC_K .Dec                       :             
 EV_VWCL_K   .Dec                       : Vcl         
 FR_VP_km    .Km/seg                    :             
 FR_ZP_km    .Km/seg                    :             
 I_DRHO      .                          :             
 IND_GR      .                          :             
 IND_INV     .                          :             
~A  DEPTH  ED_AT10   ED_AT60   ED_AT90    ED_BS    ED_CALI   ED_DTCO    ED_GR    ED_HDRA   ED_NPHI   ED_PEFZ   ED_RHOZ   EV_BVW_K EV_BVWSX~ EV_Perm_~ EV_PHIE_~  EV_SW_K  EV_VDolC~ EV_VLime~ EV_VWCL_~  FR_VP_km  FR_ZP_km   I_DRHO    IND_GR   IND_INV  
# ...
2211.1472    1.5654    1.6715    1.6443    8.5000    8.8750   94.5239   52.5751    0.0335    0.3657    6.2790    2.5932    0.0001    0.0001 -999.0000    0.0001    1.0000 -999.0000 -999.0000    0.9999    3.2246    8.3620 -999.0000    0.4049 -999.0000 
2211.2996    1.4971    1.6025    1.5876    8.5000    8.8413   95.1780   51.9756    0.0240    0.3492    5.6022    2.5879    0.0001    0.0001 -999.0000    0.0001    1.0000 -999.0000 -999.0000    0.9643    3.2024    8.2875 -999.0000    0.4318 -999.0000 
2211.4520    1.4047    1.5161    1.5288    8.5000    8.7851   96.6791   50.3488    0.0190    0.3567    4.8207    2.5701    0.0001    0.0001 -999.0000    0.0001    1.0000 -999.0000 -999.0000    0.9492    3.1527    8.1027 -999.0000    0.4370 -999.0000 
2211.6044    1.3799    1.5009    1.4997    8.5000    8.8301   98.2219   48.3797    0.0191    0.3590    4.5084    2.5513    0.0001    0.0001 -999.0000    0.0001    1.0000 -999.0000 -999.0000    0.9135    3.1032    7.9172 -999.0000    0.4355 -999.0000 
2211.7568    1.3694    1.4820    1.5155    8.5000    8.8525  100.2936   48.8363    0.0164    0.3588    4.9567    2.5131    0.0001    0.0001 -999.0000    0.0001    1.0000 -999.0000 -999.0000    0.8228    3.0391    7.6375 -999.0000    0.4575 -999.0000 
2211.9092    1.3592    1.4445    1.4991    8.5000    8.8525  100.0345   50.8341    0.0173    0.3533    5.8914    2.5000    0.0054    0.0054 -999.0000    0.0054    1.0000 -999.0000 -999.0000    0.7726    3.0469    7.6175 -999.0000    0.4301 -999.0000 
2212.0616    1.3517    1.4100    1.4929    8.5000    8.7401  100.5989   56.0860    0.0184    0.3743    6.5419    2.5143    0.0001    0.0001 -999.0000    0.0001    1.0000 -999.0000 -999.0000    0.8812    3.0299    7.6180 -999.0000    0.4207 -999.0000 
2212.2140    1.3640    1.4099    1.4672    8.5000    8.8525  100.8830   56.8284    0.0175    0.3947    6.4325    2.5344    0.0001    0.0001 -999.0000    0.0001    1.0000 -999.0000 -999.0000    0.9999    3.0213    7.6574 -999.0000    0.4112 -999.0000 
2212.3664    1.3612    1.4157    1.4591    8.5000    8.9312  101.2480   53.9455    0.0097    0.4246    5.8799    2.5148    0.0001    0.0001 -999.0000    0.0001    1.0000 -999.0000 -999.0000    0.9999    3.0104    7.5705 -999.0000    0.4513 -999.0000 
2212.5188    1.3927    1.4214    1.4491    8.5000    8.9874  101.5624   51.2620    0.0127    0.3895    5.7645    2.4945    0.0001    0.0001 -999.0000    0.0001    1.0000 -999.0000 -999.0000    0.8886    3.0011    7.4861 -999.0000    0.4770 -999.0000 
2212.6712    1.4785    1.5359    1.5264    8.5000    8.8638  101.0976   49.1497    0.0253    0.3665    6.2608    2.5122    0.0001    0.0001 -999.0000    0.0001    1.0000 -999.0000 -999.0000    0.8483    3.0149    7.5741 -999.0000    0.4309 -999.0000 
2212.8236    1.7204    1.7188    1.6963    8.5000    8.8525   97.4154   51.0336    0.0327    0.3425    6.6509    2.5653    0.0001    0.0001 -999.0000    0.0001    1.0000 -999.0000 -999.0000    0.8873    3.1289    8.0264 -999.0000    0.3987 -999.0000 
2212.9760    2.1044    2.1485    2.0705    8.5000    8.8525   92.7878   46.4100    0.0271    0.3088    6.2804    2.6133    0.0001    0.0001 -999.0000    0.0001    0.9881 -999.0000 -999.0000    0.8798    3.2849    8.5844 -999.0000    0.3624 -999.0000 
2213.1284    2.6952    2.7570    2.5777    8.5000    8.9200   85.0281   46.3242    0.0146    0.2648    5.5571    2.6112    0.0001    0.0001 -999.0000    0.0001    0.9726 -999.0000 -999.0000    0.7180    3.5847    9.3605 -999.0000    0.3717 -999.0000 
2213.2808    2.6404    2.6574    2.4765    8.5000    8.8076   82.5630   43.9840    0.0180    0.2332    5.4170    2.5812    0.0001    0.0001 -999.0000    0.0001    1.0000 -999.0000 -999.0000    0.5349    3.6917    9.5291 -999.0000    0.3587 -999.0000 
2213.4332    2.0792    2.1247    1.9999    8.5000    8.8076   81.6081   49.0073    0.0242    0.2608    5.9949    2.5285    0.0297    0.0297 -999.0000    0.0297    1.0000 -999.0000 -999.0000    0.5096    3.7349    9.4436 -999.0000    0.3752 -999.0000 
2213.5856    1.7958    1.8935    1.8371    8.5000    8.7401   88.2569   52.7464    0.0381    0.2913    6.8157    2.5080    0.0326    0.0326 -999.0000    0.0326    1.0000 -999.0000 -999.0000    0.5703    3.4536    8.6617 -999.0000    0.3798 -999.0000 
2213.7380    1.8101    1.8457    1.7954    8.5000    8.7401   91.7865   52.8892    0.0475    0.2916    7.3038    2.5190    0.0217    0.0217 -999.0000    0.0217    1.0000 -999.0000 -999.0000    0.5969    3.3208    8.3649 -999.0000    0.4177 -999.0000 
2213.8904    1.7481    1.8050    1.7916    8.5000    8.8975   93.6791   52.8894    0.0522    0.2724    7.5997    2.5368    0.0150    0.0150 -999.0000    0.0150    1.0000 -999.0000 -999.0000    0.5705    3.2537    8.2538 -999.0000    0.4126 -999.0000 
2214.0428    1.6752    1.7420    1.7430    8.5000    8.9200   93.9828   48.7510    0.0448    0.2983    7.8084    2.5370    0.0001    0.0001 -999.0000    0.0001    1.0000 -999.0000 -999.0000    0.6632    3.2431    8.2280 -999.0000    0.4220 -999.0000 
2214.1952    1.7092    1.7199    1.7112    8.5000    8.8975   94.6877   46.7812    0.0304    0.3301    7.9824    2.5237    0.0001    0.0001 -999.0000    0.0001    1.0000 -999.0000 -999.0000    0.7456    3.2190    8.1238 -999.0000    0.4107 -999.0000 
2214.3476    1.7990    1.8612    1.8410    8.5000    8.9200   96.4613   42.7850    0.0216    0.3479    7.7653    2.5312    0.0001    0.0001 -999.0000    0.0001    1.0000 -999.0000 -999.0000    0.8268    3.1598    7.9983 -999.0000    0.4161 -999.0000 
2214.5000    1.8893    1.9749    1.9450    8.5000    8.9874   95.0101   46.2388    0.0248    0.3225    7.0001    2.5612    0.0001    0.0001 -999.0000    0.0001    1.0000 -999.0000 -999.0000    0.8063    3.2081    8.2164 -999.0000    0.4370 -999.0000 
2214.6524    1.8810    1.9534    1.9364    8.5000    9.1223   93.9887   48.5221    0.0283    0.3200    5.9804    2.5714    0.0001    0.0001 -999.0000    0.0001    1.0000 -999.0000 -999.0000    0.8214    3.2429    8.3390 -999.0000    0.4731 -999.0000 
2214.8048    1.7993    1.8768    1.8510    8.5000    9.2797   94.0419   47.9228    0.0334    0.3354    5.2081    2.5634    0.0001    0.0001 -999.0000    0.0001    1.0000 -999.0000 -999.0000    0.8574    3.2411    8.3083 -999.0000    0.4651 -999.0000 
2214.9572    1.7489    1.8327    1.8110    8.5000    9.1673   93.2974   43.8126    0.0300    0.3415    5.0297    2.5304    0.0001    0.0001 -999.0000    0.0001    1.0000 -999.0000 -999.0000    0.8019    3.2670    8.2667 -999.0000    0.4540 -999.0000 
2215.1096    1.7453    1.8265    1.8078    8.5000    9.1560   93.6924   43.8983    0.0330    0.3387    5.4919    2.5149    0.0001    0.0001 -999.0000    0.0001    1.0000 -999.0000 -999.0000    0.7553    3.2532    8.1815 -999.0000    0.4174 -999.0000 
2215.2620    1.7457    1.8097    1.8034    8.5000    9.2122   93.8666   44.3837    0.0324    0.3104    6.5033    2.5062    0.0237    0.0237 -999.0000    0.0237    1.0000 -999.0000 -999.0000    0.6340    3.2472    8.1380 -999.0000    0.4414 -999.0000 
2215.4144    1.6644    1.7297    1.7324    8.5000    9.1111   93.5180   48.4365    0.0348    0.3135    7.7428    2.5141    0.0141    0.0141 -999.0000    0.0141    1.0000 -999.0000 -999.0000    0.6637    3.2593    8.1941 -999.0000    0.4508 -999.0000 
2215.5668    1.6094    1.6602    1.6775    8.5000    8.9874   93.6348   47.4377    0.0339    0.3258    8.4859    2.5298    0.0001    0.0001 -999.0000    0.0001    1.0000 -999.0000 -999.0000    0.7442    3.2552    8.2349 -999.0000    0.4258 -999.0000 
2215.7192    1.5666    1.6361    1.6531    8.5000    8.8301   94.1912   49.1500    0.0314    0.3471    8.1835    2.5479    0.0001    0.0001 -999.0000    0.0001    1.0000 -999.0000 -999.0000    0.8630    3.2360    8.2450 -999.0000    0.3936 -999.0000 
2215.8716    1.5147    1.5971    1.6290    8.5000    8.9874   94.2165   48.7506    0.0259    0.3396    7.0028    2.5577    0.0001    0.0001 -999.0000    0.0001    1.0000 -999.0000 -999.0000    0.8590    3.2351    8.2743 -999.0000    0.4020 -999.0000 
