~VERSION INFORMATION
 VERS.                 2.0:   CWLS LOG ASCII STANDARD - VERSION 2.0
 WRAP.                  NO:   SINGLE LINE PER DEPTH STEP
 CREA.                 01/01/2018 01:01:01 p.m.
#CREATED USING IP VERSION 4.4.2017.257 BY UNKNOWN ON 01/01/2001 01:01:01 p.m.
~WELL INFORMATION
#MNEM.UNIT       DATA                          DESCRIPTION MNEMONIC
#---------      ---------------------------   --------------------------
 STRT    .M         416.4848                  : START DEPTH
 STOP    .M         2874.0872                 : STOP DEPTH
 STEP    .M         0.1524                    : STEP VALUE
 NULL    .      -999.0000                     : NULL VALUE
 DATE    .      28/02/2018                    : LAS file Creation Date
 WELL  .      CL-1001      : Well Name
 COMP  .      Unknown            : Company
 FLD   .      CL                 : Field
 STATE .      Unknown            : State
 COUNT .      Unknown            : Country
 API   .      Unknown            : API Number
 UWI   .                         : Unique Well Identifier (UWI)
 LOC   .      Localizacion       : Location
 TOWN  .      Unknown            : Township
 RANG  .      Unknown            : Range
 LATI  .      Unknown            : Latitude/Northing
 LONG  .      Unknown            : Longitude/Easting
 PDAT  .      Unknown            : Permanent Datum
 EPDAT .      Unknown            : Elevation of Permanent Datum
 LGMEA .      Unknown            : Log Measured from
 APDAT .      Unknown            : Elevation Above Permanent Datum
 KB    .      Unknown            : KB Elevation
 DF    .      Unknown            : DF Elevation
 GL    .      Unknown            : GL Elevation
 RWS   .      -999               : Def_Rw
 WST   .      -999               : Def_Rwt
 UTMZ  .      Unknown            : UTM Zone
 BHS   .      OPEN               : Completion Status
 RIGN  .      Unknown            : Rig Name
 CNTY  .      Unknown            : County
 PROV  .      Unknown            : Province
 MDEC  .      0                  : Magnetic Declination
 SRVC  .      Unknown            : Contractor
~CURVE INFORMATION
#MNEM               UNIT       API CODE   Curve Type Comments
#----------   --------------- ----------  ---------- -----------
 DEPTH       .M                         : Depth       
 ED_AT10     .ohm.m                     : ShalRes     (AIT-M)                 (3in)                   Array Induction Two Foot Resistivity A10
 ED_AT60     .ohm.m                     : MedRes      (AIT-M)                 (3in)                   Array Induction Two Foot Resistivity A60
 ED_AT90     .ohm.m                     : DeepRes     (AIT-M)                 (3in)                   Array Induction Two Foot Resistivity A90
 ED_BS       .in                        : BitSize     (RT)    (Borehole)              (6in)                   Bit Size
 ED_CALI     .in                        : Caliper     (HDRS-H)                (1in)                   Caliper
 ED_DTCO     .us/ft                     : Sonic       (DSLT-BB)               (6in)                   Delta-T (also called Slowness or Interval Transit Time)
 ED_GR       .gAPI                      : GammaRay    (HGNS-H)                (6in)                   Calibrated Gamma Ray
 ED_HDRA     .g/cm3                     : Drho        (HDRS-H)                (2in)                   Density Standoff Correction
 ED_NPHI     .m3/m3                     : Neutron     (HGNS-H)                (6in)                   Thermal Neutron Porosity (original Ratio Method) in Selected Lithology
 ED_PEFZ     .B/E                       : PEF         (HDRS-H)                (2in)                   Standard Resolution Formation Photoelectric Factor
 ED_RHOZ     .g/cm3                     : Density     (HDRS-H)                (2in)                   Standard Resolution Formation Density
 EV_BVW_K    .Dec                       : BVW         
 EV_BVWSXO_K .Dec                       : BVWSXO      
 EV_Perm_Mtz .mD                        :             
 EV_PHIE_K   .Dec                       : Phi         
 EV_SW_K     .Dec                       : Sw          
 EV_VDolC_K  .Dec                       :             
 EV_VLimeC_K .Dec                       :             
 EV_VWCL_K   .Dec                       : Vcl         
 FR_VP_km    .Km/seg                    :             
 FR_ZP_km    .Km/seg                    :             
 I_DRHO      .                          :             
 IND_GR      .                          :             
 IND_INV     .                          :             
~A  DEPTH  ED_AT10   ED_AT60   ED_AT90    ED_BS    ED_CALI   ED_DTCO    ED_GR    ED_HDRA   ED_NPHI   ED_PEFZ   ED_RHOZ   EV_BVW_K EV_BVWSX~ EV_Perm_~ EV_PHIE_~  EV_SW_K  EV_VDolC~ EV_VLime~ EV_VWCL_~  FR_VP_km  FR_ZP_km   I_DRHO    IND_GR   IND_INV  
# ...
2674.4432    9.4501    6.5003    6.0561    6.1250    6.0569   68.5852   18.7991    0.0034    0.1401    4.6020    2.3911    0.1030    0.1030   59.6706    0.1637    0.6288    0.0000    0.8301    0.0061    4.4441   10.5825    0.0000 -999.0000    0.1932 
2674.5956    8.7727    6.0773    5.7079    6.1250    6.0511   68.7664   18.8867    0.0026    0.1390    4.5931    2.3890    0.1060    0.1060   56.4406    0.1619    0.6550    0.0000    0.8310    0.0071    4.4324   10.5739    0.0000 -999.0000    0.1867 
2674.7480    8.7223    6.0284    5.6439    6.1250    6.0626   69.4850   17.2229    0.0020    0.1417    4.6393    2.3879    0.1066    0.1066   53.7833    0.1604    0.6651    0.0000    0.8320    0.0077    4.3866   10.5057    0.0000 -999.0000    0.1891 
2674.9004    8.8808    5.9774    5.6033    6.1250    6.0511   69.4393   17.3417    0.0017    0.1461    4.6642    2.3856    0.1070    0.1070   54.4157    0.1607    0.6659    0.0000    0.8329    0.0064    4.3894   10.5401    0.0000 -999.0000    0.2000 
2675.0528    8.8510    5.8362    5.4918    6.1250    6.0454   69.3100   16.5097    0.0018    0.1419    4.6607    2.3806    0.1081    0.1081   64.8007    0.1665    0.6494    0.0000    0.8281    0.0054    4.3976   10.4486    0.0000 -999.0000    0.2073 
2675.2052    8.4151    5.6567    5.4738    6.1250    6.0511   69.0256   16.2208    0.0026    0.1353    4.6039    2.3802    0.1083    0.1083   59.6510    0.1637    0.6614    0.0000    0.8312    0.0051    4.4158   10.4864    0.0000 -999.0000    0.1868 
2675.3576    8.0361    5.3835    5.1892    6.1250    6.0626   68.1477   15.4005    0.0030    0.1292    4.5776    2.3801    0.1112    0.1112   53.6117    0.1602    0.6940    0.0000    0.8340    0.0058    4.4726   10.6294    0.0000 -999.0000    0.1899 
2675.5100    7.9302    5.7385    5.5158    6.1250    6.0569   67.7073   16.5732    0.0045    0.1228    4.6008    2.3911    0.1079    0.1079   42.3219    0.1528    0.7059    0.0000    0.8407    0.0065    4.5017   10.7609    0.0001 -999.0000    0.1577 
2675.6624    9.6540    6.9063    6.6071    6.1250    6.0473   65.4382   19.6391    0.0136    0.1055    4.6884    2.4326    0.0986    0.0986   23.1250    0.1353    0.7284    0.0000    0.8581    0.0066    4.6578   11.2706    0.0092 -999.0000    0.1647 
2675.8148   12.2609    9.3391    8.5402    6.1250    6.0626   64.2287   21.5245    0.0265    0.0838    4.7831    2.5049    0.0867    0.0867    5.2400    0.1005    0.8628    0.0000    0.8942    0.0053    4.7455   11.8696    0.0220 -999.0000    0.1571 
2675.9672   16.7267   10.6009    9.6816    6.1250    6.0550   63.1762   23.3035    0.0297    0.0690    4.8340    2.5616    0.0673    0.0673    0.7173    0.0673    1.0000    0.0000    0.9262    0.0065    4.8246   12.4964    0.0252 -999.0000    0.2375 
2676.1196   23.4797   13.2732   11.5548    6.1250    6.0799   60.5508   22.9989    0.0288    0.0620    4.8489    2.5844    0.0559    0.0559    0.2963    0.0559    1.0000    0.0483    0.8897    0.0060    5.0338   13.2037    0.0244 -999.0000    0.3079 
2676.2720   32.0443   17.2682   14.1641    6.1250    6.0780   61.0114   23.6425    0.0190    0.0606    4.8309    2.5461    0.0673    0.0673    1.1192    0.0736    0.9145    0.0000    0.9215    0.0048    4.9958   12.7518    0.0146 -999.0000    0.3546 
2676.4244   37.7445   19.6713   18.4160    6.1250    6.0742   61.6730   21.5746    0.0144    0.0642    4.7974    2.4896    0.0590    0.0590    3.4258    0.0922    0.6404    0.0000    0.9042    0.0036    4.9422   12.3202    0.0099 -999.0000    0.3117 
2676.5768   27.5827   16.6928   16.0411    6.1250    6.0626   63.2284   19.2720    0.0056    0.0750    4.7709    2.4274    0.0632    0.0632   21.1032    0.1328    0.4761    0.0000    0.8632    0.0040    4.8206   11.4201    0.0012 -999.0000    0.2354 
2676.7292   22.6389   14.9161   15.1996    6.1250    6.0454   65.5591   17.8666    0.0010    0.0905    4.7993    2.3939    0.0650    0.0650   25.7153    0.1382    0.4700    0.0000    0.8576    0.0041    4.6492   11.0698    0.0000 -999.0000    0.1730 
2676.8816   18.8822   14.1755   14.6355    6.1250    6.0626   66.6216   17.6209   -0.0002    0.0984    4.8314    2.3916    0.0662    0.0662   23.9511    0.1363    0.4858    0.0000    0.8589    0.0048    4.5751   10.9872    0.0000 -999.0000    0.1106 
2677.0340   18.3471   13.8855   13.9228    6.1250    6.0626   66.7821   17.4017    0.0000    0.1045    4.8039    2.4057    0.0679    0.0679   23.6530    0.1360    0.4992    0.0000    0.8604    0.0037    4.5641   11.0170    0.0000 -999.0000    0.1198 
2677.1864   19.8164   14.1658   13.9674    6.1250    6.0569   66.4541   15.6064    0.0009    0.0997    4.7612    2.4202    0.0678    0.0678   20.3924    0.1320    0.5135    0.0000    0.8644    0.0037    4.5866   11.0963    0.0000 -999.0000    0.1519 
2677.3388   21.1028   14.1867   13.5007    6.1250    6.0626   65.0349   15.6382    0.0023    0.0950    4.7067    2.4328    0.0689    0.0689   13.8915    0.1222    0.5642    0.0000    0.8739    0.0039    4.6867   11.4578    0.0000 -999.0000    0.1940 
2677.4912   22.1302   13.6761   13.2827    6.1250    6.0703   64.2582   15.5703    0.0028    0.0906    4.6867    2.4387    0.0695    0.0695   13.2839    0.1211    0.5740    0.0000    0.8733    0.0056    4.7434   11.5734    0.0000 -999.0000    0.2217 
2677.6436   21.5230   13.0617   12.5983    6.1250    6.0626   63.1119   17.6807    0.0045    0.0918    4.6761    2.4506    0.0714    0.0714   12.9419    0.1204    0.5925    0.0000    0.8747    0.0049    4.8295   11.8081    0.0000 -999.0000    0.2326 
2677.7960   20.3923   12.0226   12.1051    6.1250    6.0550   63.0557   19.7732    0.0064    0.0904    4.7051    2.4600    0.0728    0.0728    9.3250    0.1128    0.6456    0.0000    0.8827    0.0045    4.8338   11.9397    0.0019 -999.0000    0.2265 
2677.9484   17.1345   11.0920   10.5679    6.1250    6.0569   63.8294   21.4834    0.0062    0.0939    4.7050    2.4553    0.0779    0.0779    9.6567    0.1136    0.6861    0.0000    0.8813    0.0051    4.7752   11.8143    0.0017 -999.0000    0.2099 
2678.1008   15.1129    9.9967    9.4275    6.1250    6.0473   64.6052   20.3635    0.0048    0.1014    4.6678    2.4356    0.0825    0.0825   16.6020    0.1266    0.6515    0.0000    0.8685    0.0049    4.7179   11.5207    0.0003 -999.0000    0.2050 
2678.2532   12.3706    9.5843    8.8167    6.1250    6.0626   65.2733   17.0273    0.0028    0.1101    4.5977    2.4147    0.0853    0.0853   32.4451    0.1449    0.5888    0.0000    0.8490    0.0061    4.6696   11.1789    0.0000 -999.0000    0.1471 
2678.4056   14.1050   10.3948    9.2870    6.1250    6.0569   65.2029   16.2010    0.0034    0.1090    4.6002    2.4200    0.0831    0.0831   31.9307    0.1444    0.5755    0.0000    0.8493    0.0063    4.6746   11.1885    0.0000 -999.0000    0.1815 
2678.5580   18.7153   14.1933   11.8004    6.1250    6.0569   63.4194   15.2079    0.0159    0.0917    4.7000    2.4782    0.0737    0.0737   11.1805    0.1169    0.6305    0.0000    0.8765    0.0066    4.8061   11.8070    0.0115 -999.0000    0.2003 
2678.7104   29.0854   18.2794   15.4872    6.1250    6.0799   59.1844   17.3253    0.0362    0.0607    4.8806    2.5666    0.0575    0.0575    0.3312    0.0575    1.0000    0.0000    0.9354    0.0071    5.1500   13.4383    0.0317 -999.0000    0.2737 
2678.8628   40.4747   23.9039   19.3878    6.1250    6.1260   57.5653   17.7782    0.0581    0.0385    5.0319    2.6496    0.0308    0.0308    0.0162    0.0308    1.0000    0.1699    0.7909    0.0084    5.2949   14.2593    0.0537 -999.0000    0.3197 
2679.0152   62.3510   33.6376   26.1910    6.1250    6.1318   55.8873   18.8830    0.0566    0.0278    5.0494    2.6579    0.0287    0.0287    0.0108    0.0287    1.0000    0.0000    0.9629    0.0084    5.4538   14.4588    0.0522 -999.0000    0.3767 
2679.1676  102.2606   53.3245   47.1233    6.1250    6.1318   54.8958   16.3261    0.0368    0.0282    4.9943    2.6192    0.0369    0.0369    0.0556    0.0400    0.9213    0.0000    0.9531    0.0069    5.5523   14.4776    0.0323 -999.0000    0.3365 
