~VERSION INFORMATION
 VERS.                 2.0:   CWLS LOG ASCII STANDARD - VERSION 2.0
 WRAP.                  NO:   SINGLE LINE PER DEPTH STEP
 CREA.                 01/01/2018 01:01:01 p.m.
#CREATED USING IP VERSION 4.4.2017.257 BY UNKNOWN ON 01/01/2001 01:01:01 p.m.
~WELL INFORMATION
#MNEM.UNIT       DATA                          DESCRIPTION MNEMONIC
#---------      ---------------------------   --------------------------
 STRT    .M         416.4848                  : START DEPTH
 STOP    .M         2874.0872                 : STOP DEPTH
 STEP    .M         0.1524                    : STEP VALUE
 NULL    .      -999.0000                     : NULL VALUE
 DATE    .      28/02/2018                    : LAS file Creation Date
 WELL  .      CL-1001      : Well Name
 COMP  .      Unknown            : Company
 FLD   .      CL                 : Field
 STATE .      Unknown            : State
 COUNT .      Unknown            : Country
 API   .      Unknown            : API Number
 UWI   .                         : Unique Well Identifier (UWI)
 LOC   .      Localizacion       : Location
 TOWN  .      Unknown            : Township
 RANG  .      Unknown            : Range
 LATI  .      Unknown            : Latitude/Northing
 LONG  .      Unknown            : Longitude/Easting
 PDAT  .      Unknown            : Permanent Datum
 EPDAT .      Unknown            : Elevation of Permanent Datum
 LGMEA .      Unknown            : Log Measured from
 APDAT .      Unknown            : Elevation Above Permanent Datum
 KB    .      Unknown            : KB Elevation
 DF    .      Unknown            : DF Elevation
 GL    .      Unknown            : GL Elevation
 RWS   .      -999               : Def_Rw
 WST   .      -999               : Def_Rwt
 UTMZ  .      Unknown            : UTM Zone
 BHS   .      OPEN               : Completion Status
 RIGN  .      Unknown            : Rig Name
 CNTY  .      Unknown            : County
 PROV  .      Unknown            : Province
 MDEC  .      0                  : Magnetic Declination
 SRVC  .      Unknown            : Contractor
~CURVE INFORMATION
#MNEM               UNIT       API CODE   Curve Type Comments
#----------   --------------- ----------  ---------- -----------
 DEPTH       .M                         : Depth       
 ED_AT10     .ohm.m                     : ShalRes     (AIT-M)                 (3in)                   Array Induction Two Foot Resistivity A10
 ED_AT60     .ohm.m                     : MedRes      (AIT-M)                 (3in)                   Array Induction Two Foot Resistivity A60
 ED_AT90     .ohm.m                     : DeepRes     (AIT-M)                 (3in)                   Array Induction Two Foot Resistivity A90
 ED_BS       .in                        : BitSize     (RT)    (Borehole)              (6in)                   Bit Size
 ED_CALI     .in                        : Caliper     (HDRS-H)                (1in)                   Caliper
 ED_DTCO     .us/ft                     : Sonic       (DSLT-BB)               (6in)                   Delta-T (also called Slowness or Interval Transit Time)
 ED_GR       .gAPI                      : GammaRay    (HGNS-H)                (6in)                   Calibrated Gamma Ray
 ED_HDRA     .g/cm3                     : Drho        (HDRS-H)                (2in)                   Density Standoff Correction
 ED_NPHI     .m3/m3                     : Neutron     (HGNS-H)                (6in)                   Thermal Neutron Porosity (original Ratio Method) in Selected Lithology
 ED_PEFZ     .B/E                       : PEF         (HDRS-H)                (2in)                   Standard Resolution Formation Photoelectric Factor
 ED_RHOZ     .g/cm3                     : Density     (HDRS-H)                (2in)                   Standard Resolution Formation Density
 EV_BVW_K    .Dec                       : BVW         
 EV_BVWSXO_K .Dec                       : BVWSXO      
 EV_Perm_Mtz .mD                        :             
 EV_PHIE_K   .Dec                       : Phi         
 EV_SW_K     .Dec                       : Sw          
 EV_VDolC_K  .Dec                       :             
 EV_VLimeC_K .Dec                       :             
 EV_VWCL_K   .Dec                       : Vcl         
 FR_VP_km    .Km/seg                    :             
 FR_ZP_km    .Km/seg                    :             
 I_DRHO      .                          :             
 IND_GR      .                          :             
 IND_INV     .                          :             
~A  DEPTH  ED_AT10   ED_AT60   ED_AT90    ED_BS    ED_CALI   ED_DTCO    ED_GR    ED_HDRA   ED_NPHI   ED_PEFZ   ED_RHOZ   EV_BVW_K EV_BVWSX~ EV_Perm_~ EV_PHIE_~  EV_SW_K  EV_VDolC~ EV_VLime~ EV_VWCL_~  FR_VP_km  FR_ZP_km   I_DRHO    IND_GR   IND_INV  
# ...
2367.2048    3.6622    3.4706    3.4062    8.5000    8.8076   83.1005   60.1107    0.0042    0.2778    4.1548    2.5851    0.0001    0.0001 -999.0000    0.0001    0.7516 -999.0000 -999.0000    0.7031    3.6678    9.4818 -999.0000    0.4605 -999.0000 
2367.3572    4.1868    3.9982    3.9327    8.5000    8.7401   82.8340   53.7169    0.0060    0.2685    4.4085    2.5936    0.0001    0.0001 -999.0000    0.0001    0.6635 -999.0000 -999.0000    0.6898    3.6796    9.5437 -999.0000    0.4377 -999.0000 
2367.5096    5.1555    4.5925    4.5915    8.5000    8.7401   78.3410   55.0869    0.0169    0.2412    4.7146    2.6225    0.0001    0.0001 -999.0000    0.0001    0.5936 -999.0000 -999.0000    0.6604    3.8907   10.2033 -999.0000    0.4621 -999.0000 
2367.6620    5.0404    4.6245    4.5525    8.5000    8.8525   77.3369   56.2859    0.0237    0.2326    5.0827    2.6302    0.0001    0.0001 -999.0000    0.0001    0.6102 -999.0000 -999.0000    0.6480    3.9412   10.3662 -999.0000    0.5158 -999.0000 
2367.8144    4.2332    4.0189    3.9335    8.5000    8.7851   76.7868   64.7058    0.0251    0.2347    5.4606    2.6193    0.0001    0.0001 -999.0000    0.0001    0.7270 -999.0000 -999.0000    0.6294    3.9694   10.3970 -999.0000    0.5096 -999.0000 
2367.9668    3.7115    3.6252    3.5030    8.5000    8.6727   78.4615   67.9598    0.0222    0.2619    5.6330    2.6192    0.0001    0.0001 -999.0000    0.0001    0.7074 -999.0000 -999.0000    0.7264    3.8847   10.1749 -999.0000    0.5214 -999.0000 
2368.1192    3.9361    3.8027    3.7041    8.5000    8.6839   81.4530   67.7595    0.0111    0.2567    5.4480    2.6195    0.0001    0.0001 -999.0000    0.0001    0.6859 -999.0000 -999.0000    0.7085    3.7420    9.8021 -999.0000    0.5380 -999.0000 
2368.2716    4.4164    4.2868    4.1781    8.5000    8.7851   81.9251   59.5395    0.0036    0.2421    4.9126    2.6268    0.0001    0.0001 -999.0000    0.0001    0.6395 -999.0000 -999.0000    0.6737    3.7205    9.7729 -999.0000    0.5840 -999.0000 
2368.4240    4.9130    4.6782    4.5857    8.5000    9.0324   80.2623   53.5456   -0.0017    0.2281    4.3159    2.6207    0.0001    0.0001 -999.0000    0.0001    0.6441 -999.0000 -999.0000    0.6094    3.7976    9.9523 -999.0000    0.5382 -999.0000 
2368.5764    4.9288    4.6153    4.5029    8.5000    9.0773   77.6322   50.5490    0.0008    0.2247    3.8134    2.6203    0.0001    0.0001 -999.0000    0.0001    0.6703 -999.0000 -999.0000    0.5964    3.9262   10.2878 -999.0000    0.4869 -999.0000 
2368.7288    4.6785    4.4158    4.2915    8.5000    9.0773   77.0452   53.1461    0.0032    0.2344    3.5365    2.6156    0.0001    0.0001 -999.0000    0.0001    0.6767 -999.0000 -999.0000    0.6198    3.9561   10.3476 -999.0000    0.4988 -999.0000 
2368.8812    4.4607    4.2215    4.1444    8.5000    8.8076   77.4431   55.6578   -0.0010    0.2392    3.4032    2.6011    0.0001    0.0001 -999.0000    0.0001    0.7203 -999.0000 -999.0000    0.6030    3.9358   10.2375 -999.0000    0.5329 -999.0000 
2369.0336    4.2025    4.0621    3.9903    8.5000    8.8076   79.1478   58.6548   -0.0012    0.2528    3.3730    2.5890    0.0001    0.0001 -999.0000    0.0001    0.7241 -999.0000 -999.0000    0.6230    3.8510    9.9703 -999.0000    0.5626 -999.0000 
2369.1860    3.9841    3.8843    3.8208    8.5000    8.8975   80.5239   63.8495   -0.0026    0.2748    3.4265    2.5762    0.0001    0.0001 -999.0000    0.0001    0.7017 -999.0000 -999.0000    0.6714    3.7852    9.7513 -999.0000    0.5238 -999.0000 
2369.3384    3.7131    3.6009    3.5803    8.5000    9.0324   81.2553   64.3060   -0.0022    0.3077    3.5166    2.5658    0.0001    0.0001 -999.0000    0.0001    0.6576 -999.0000 -999.0000    0.7645    3.7511    9.6247 -999.0000    0.4913 -999.0000 
2369.4908    3.4867    3.3827    3.3141    8.5000    8.9649   82.2353   67.5028   -0.0003    0.3329    3.5776    2.5761    0.0001    0.0001 -999.0000    0.0001    0.6184 -999.0000 -999.0000    0.8783    3.7064    9.5482 -999.0000    0.5070 -999.0000 
2369.6432    3.6477    3.5215    3.4541    8.5000    8.8975   82.9501   63.9066    0.0018    0.3178    3.5489    2.5900    0.0001    0.0001 -999.0000    0.0001    0.6080 -999.0000 -999.0000    0.8572    3.6745    9.5168 -999.0000    0.5320 -999.0000 
2369.7956    3.9172    3.7609    3.6689    8.5000    8.8975   83.0462   66.1898    0.0046    0.2998    3.4798    2.6061    0.0001    0.0001 -999.0000    0.0001    0.5905 -999.0000 -999.0000    0.8308    3.6702    9.5648 -999.0000    0.5440 -999.0000 
2369.9480    4.2700    4.0262    3.9179    8.5000    8.8750   82.0159   65.9898    0.0046    0.2812    3.4360    2.6036    0.0001    0.0001 -999.0000    0.0001    0.6057 -999.0000 -999.0000    0.7585    3.7164    9.6759 -999.0000    0.5190 -999.0000 
2370.1004    4.7544    4.3802    4.2702    8.5000    8.9200   79.7542   62.7075    0.0042    0.2653    3.5127    2.5964    0.0001    0.0001 -999.0000    0.0001    0.6152 -999.0000 -999.0000    0.6852    3.8217    9.9229 -999.0000    0.5129 -999.0000 
2370.2528    4.7363    4.4406    4.3793    8.5000    8.9537   79.8614   62.0513   -0.0014    0.2546    3.7434    2.5794    0.0001    0.0001 -999.0000    0.0001    0.6770 -999.0000 -999.0000    0.6072    3.8166    9.8446 -999.0000    0.5556 -999.0000 
2370.4052    4.3304    4.0759    3.9803    8.5000    8.8301   79.3184   63.2505   -0.0052    0.2522    4.1726    2.5603    0.0026    0.0026 -999.0000    0.0032    0.8164 -999.0000 -999.0000    0.5536    3.8427    9.8385 -999.0000    0.5631 -999.0000 
2370.5576    4.2128    3.9238    3.8181    8.5000    8.7851   80.0145   64.8489    0.0011    0.2681    4.6560    2.5619    0.0001    0.0001 -999.0000    0.0001    0.7679 -999.0000 -999.0000    0.6139    3.8093    9.7590 -999.0000    0.5756 -999.0000 
2370.7100    4.0915    3.9203    3.8128    8.5000    8.8076   81.7429   66.2473    0.0108    0.2768    4.9801    2.5859    0.0001    0.0001 -999.0000    0.0001    0.6732 -999.0000 -999.0000    0.7012    3.7288    9.6421 -999.0000    0.5399 -999.0000 
2370.8624    3.8389    3.6954    3.6051    8.5000    8.7851   82.1389   63.2502    0.0091    0.2786    4.9141    2.6034    0.0001    0.0001 -999.0000    0.0001    0.6666 -999.0000 -999.0000    0.7490    3.7108    9.6606 -999.0000    0.5580 -999.0000 
2371.0148    3.6306    3.5352    3.4536    8.5000    8.8750   81.7264   65.3050    0.0022    0.2849    4.5197    2.6040    0.0001    0.0001 -999.0000    0.0001    0.6746 -999.0000 -999.0000    0.7726    3.7295    9.7115 -999.0000    0.5961 -999.0000 
2371.1672    3.6920    3.5946    3.5190    8.5000    8.8638   83.2891   64.5061   -0.0032    0.2746    4.0159    2.5884    0.0001    0.0001 -999.0000    0.0001    0.7315 -999.0000 -999.0000    0.6992    3.6595    9.4722 -999.0000    0.5831 -999.0000 
2371.3196    3.8838    3.6747    3.6042    8.5000    8.8076   83.5462   62.3080   -0.0005    0.2816    3.6523    2.5840    0.0001    0.0001 -999.0000    0.0001    0.6994 -999.0000 -999.0000    0.7140    3.6483    9.4272 -999.0000    0.5459 -999.0000 
2371.4720    4.0017    3.7583    3.6920    8.5000    8.8975   82.6299   59.5681   -0.0003    0.2830    3.4761    2.5728    0.0001    0.0001 -999.0000    0.0001    0.7038 -999.0000 -999.0000    0.6927    3.6887    9.4905 -999.0000    0.4789 -999.0000 
2371.6244    4.1187    3.8237    3.7721    8.5000    8.9874   82.4019   57.9697    0.0027    0.2772    3.4731    2.5755    0.0001    0.0001 -999.0000    0.0001    0.7034 -999.0000 -999.0000    0.6784    3.6989    9.5266 -999.0000    0.5206 -999.0000 
2371.7768    4.0230    3.7329    3.6860    8.5000    8.9649   81.4780   57.0277   -0.0005    0.2758    3.5144    2.5773    0.0001    0.0001 -999.0000    0.0001    0.7206 -999.0000 -999.0000    0.6777    3.7409    9.6414 -999.0000    0.5422 -999.0000 
2371.9292    3.8626    3.6577    3.6342    8.5000    8.8975   82.3634   57.9985   -0.0010    0.2862    3.6466    2.5880    0.0001    0.0001 -999.0000    0.0001    0.6695 -999.0000 -999.0000    0.7398    3.7007    9.5775 -999.0000    0.5701 -999.0000 
