~VERSION INFORMATION
 VERS.                 2.0:   CWLS LOG ASCII STANDARD - VERSION 2.0
 WRAP.                  NO:   SINGLE LINE PER DEPTH STEP
 CREA.                 01/01/2018 01:01:01 p.m.
#CREATED USING IP VERSION 4.4.2017.257 BY UNKNOWN ON 01/01/2001 01:01:01 p.m.
~WELL INFORMATION
#MNEM.UNIT       DATA                          DESCRIPTION MNEMONIC
#---------      ---------------------------   --------------------------
 STRT    .M         416.4848                  : START DEPTH
 STOP    .M         2874.0872                 : STOP DEPTH
 STEP    .M         0.1524                    : STEP VALUE
 NULL    .      -999.0000                     : NULL VALUE
 DATE    .      28/02/2018                    : LAS file Creation Date
 WELL  .      CL-1001      : Well Name
 COMP  .      Unknown            : Company
 FLD   .      CL                 : Field
 STATE .      Unknown            : State
 COUNT .      Unknown            : Country
 API   .      Unknown            : API Number
 UWI   .                         : Unique Well Identifier (UWI)
 LOC   .      Localizacion       : Location
 TOWN  .      Unknown            : Township
 RANG  .      Unknown            : Range
 LATI  .      Unknown            : Latitude/Northing
 LONG  .      Unknown            : Longitude/Easting
 PDAT  .      Unknown            : Permanent Datum
 EPDAT .      Unknown            : Elevation of Permanent Datum
 LGMEA .      Unknown            : Log Measured from
 APDAT .      Unknown            : Elevation Above Permanent Datum
 KB    .      Unknown            : KB Elevation
 DF    .      Unknown            : DF Elevation
 GL    .      Unknown            : GL Elevation
 RWS   .      -999               : Def_Rw
 WST   .      -999               : Def_Rwt
 UTMZ  .      Unknown            : UTM Zone
 BHS   .      OPEN               : Completion Status
 RIGN  .      Unknown            : Rig Name
 CNTY  .      Unknown            : County
 PROV  .      Unknown            : Province
 MDEC  .      0                  : Magnetic Declination
 SRVC  .      Unknown            : Contractor
~CURVE INFORMATION
#MNEM               UNIT       API CODE   Curve Type Comments
#----------   --------------- ----------  ---------- -----------
 DEPTH       .M                         : Depth       
 ED_AT10     .ohm.m                     : ShalRes     (AIT-M)                 (3in)                   Array Induction Two Foot Resistivity A10
 ED_AT60     .ohm.m                     : MedRes      (AIT-M)                 (3in)                   Array Induction Two Foot Resistivity A60
 ED_AT90     .ohm.m                     : DeepRes     (AIT-M)                 (3in)                   Array Induction Two Foot Resistivity A90
 ED_BS       .in                        : BitSize     (RT)    (Borehole)              (6in)                   Bit Size
 ED_CALI     .in                        : Caliper     (HDRS-H)                (1in)                   Caliper
 ED_DTCO     .us/ft                     : Sonic       (DSLT-BB)               (6in)                   Delta-T (also called Slowness or Interval Transit Time)
 ED_GR       .gAPI                      : GammaRay    (HGNS-H)                (6in)                   Calibrated Gamma Ray
 ED_HDRA     .g/cm3                     : Drho        (HDRS-H)                (2in)                   Density Standoff Correction
 ED_NPHI     .m3/m3                     : Neutron     (HGNS-H)                (6in)                   Thermal Neutron Porosity (original Ratio Method) in Selected Lithology
 ED_PEFZ     .B/E                       : PEF         (HDRS-H)                (2in)                   Standard Resolution Formation Photoelectric Factor
 ED_RHOZ     .g/cm3                     : Density     (HDRS-H)                (2in)                   Standard Resolution Formation Density
 EV_BVW_K    .Dec                       : BVW         
 EV_BVWSXO_K .Dec                       : BVWSXO      
 EV_Perm_Mtz .mD                        :             
 EV_PHIE_K   .Dec                       : Phi         
 EV_SW_K     .Dec                       : Sw          
 EV_VDolC_K  .Dec                       :             
 EV_VLimeC_K .Dec                       :             
 EV_VWCL_K   .Dec                       : Vcl         
 FR_VP_km    .Km/seg                    :             
 FR_ZP_km    .Km/seg                    :             
 I_DRHO      .                          :             
 IND_GR      .                          :             
 IND_INV     .                          :             
~A  DEPTH  ED_AT10   ED_AT60   ED_AT90    ED_BS    ED_CALI   ED_DTCO    ED_GR    ED_HDRA   ED_NPHI   ED_PEFZ   ED_RHOZ   EV_BVW_K EV_BVWSX~ EV_Perm_~ EV_PHIE_~  EV_SW_K  EV_VDolC~ EV_VLime~ EV_VWCL_~  FR_VP_km  FR_ZP_km   I_DRHO    IND_GR   IND_INV  
# ...
2055.0896    1.4089    1.4891    1.4992    8.5000    8.8975  101.7772   45.2966    0.0020    0.3254    4.0476    2.5394    0.0001    0.0001 -999.0000    0.0001    1.0000 -999.0000 -999.0000    0.7655    2.9948    7.6049 -999.0000    0.4105 -999.0000 
2055.2420    1.4392    1.5220    1.5394    8.5000    8.8525  101.6908   43.8980    0.0036    0.3385    4.0992    2.5311    0.0001    0.0001 -999.0000    0.0001    1.0000 -999.0000 -999.0000    0.7927    2.9973    7.5866 -999.0000    0.4178 -999.0000 
2055.3944    1.4325    1.5218    1.5222    8.5000    8.8301  101.6274   45.2682    0.0070    0.3429    4.1832    2.5196    0.0001    0.0001 -999.0000    0.0001    1.0000 -999.0000 -999.0000    0.7813    2.9992    7.5567 -999.0000    0.4068 -999.0000 
2055.5468    1.4058    1.4806    1.4891    8.5000    8.8076  101.5155   52.2612    0.0044    0.3707    4.2598    2.5064    0.0001    0.0001 -999.0000    0.0001    1.0000 -999.0000 -999.0000    0.8494    3.0025    7.5254 -999.0000    0.4056 -999.0000 
2055.6992    1.4073    1.4692    1.4751    8.5000    8.8188  101.5442   50.0351    0.0017    0.3609    4.2995    2.4971    0.0040    0.0040 -999.0000    0.0040    1.0000 -999.0000 -999.0000    0.7928    3.0016    7.4955 -999.0000    0.4054 -999.0000 
2055.8516    1.4324    1.5084    1.5165    8.5000    8.8525  100.8717   47.7231    0.0006    0.3477    4.4460    2.4882    0.0203    0.0203 -999.0000    0.0203    1.0000 -999.0000 -999.0000    0.7249    3.0217    7.5186 -999.0000    0.4175 -999.0000 
2056.0040    1.4542    1.5373    1.5328    8.5000    8.8413  100.3454   45.3256    0.0033    0.3324    4.7531    2.4900    0.0271    0.0271 -999.0000    0.0271    1.0000 -999.0000 -999.0000    0.6747    3.0375    7.5635 -999.0000    0.4087 -999.0000 
2056.1564    1.4743    1.5616    1.5441    8.5000    8.8076   99.9090   51.4903    0.0140    0.3426    5.1118    2.5064    0.0052    0.0052 -999.0000    0.0052    1.0000 -999.0000 -999.0000    0.7495    3.0508    7.6466 -999.0000    0.3539 -999.0000 
2056.3088    1.4907    1.5457    1.5481    8.5000    8.7739  100.0825   55.6860    0.0213    0.3608    5.3384    2.5268    0.0001    0.0001 -999.0000    0.0001    1.0000 -999.0000 -999.0000    0.8623    3.0455    7.6954 -999.0000    0.3460 -999.0000 
2056.4612    1.4386    1.5207    1.5248    8.5000    8.7851  100.2146   52.1180    0.0218    0.3489    5.3295    2.5370    0.0001    0.0001 -999.0000    0.0001    1.0000 -999.0000 -999.0000    0.8437    3.0415    7.7163 -999.0000    0.3747 -999.0000 
2056.6136    1.4325    1.4911    1.4916    8.5000    8.7626  100.9230   50.7771    0.0127    0.3390    5.2478    2.5278    0.0001    0.0001 -999.0000    0.0001    1.0000 -999.0000 -999.0000    0.7869    3.0201    7.6343 -999.0000    0.4092 -999.0000 
2056.7660    1.3882    1.4234    1.4420    8.5000    8.7626  101.5552   46.3818    0.0075    0.3436    5.1856    2.5210    0.0001    0.0001 -999.0000    0.0001    1.0000 -999.0000 -999.0000    0.7873    3.0013    7.5665 -999.0000    0.4050 -999.0000 
2056.9184    1.4073    1.4063    1.4080    8.5000    8.7401  101.1237   48.1515    0.0103    0.3651    5.0801    2.5340    0.0001    0.0001 -999.0000    0.0001    1.0000 -999.0000 -999.0000    0.8943    3.0141    7.6378 -999.0000    0.4133 -999.0000 
2057.0708    1.4539    1.4608    1.4603    8.5000    8.7177  100.0992   45.1542    0.0087    0.3580    4.8980    2.5333    0.0001    0.0001 -999.0000    0.0001    1.0000 -999.0000 -999.0000    0.8673    3.0450    7.7137 -999.0000    0.3947 -999.0000 
2057.2232    1.4890    1.5183    1.5106    8.5000    8.8301   99.4286   45.9530    0.0058    0.3391    4.7125    2.5234    0.0001    0.0001 -999.0000    0.0001    1.0000 -999.0000 -999.0000    0.7771    3.0655    7.7357 -999.0000    0.4195 -999.0000 
2057.3756    1.5281    1.5409    1.5235    8.5000    8.8525   97.8213   49.4351    0.0049    0.3348    4.7868    2.5055    0.0105    0.0105 -999.0000    0.0105    1.0000 -999.0000 -999.0000    0.7196    3.1159    7.8069 -999.0000    0.4430 -999.0000 
2057.5280    1.5633    1.5941    1.5622    8.5000    8.7626   97.5608   52.0325    0.0109    0.3200    5.2563    2.4963    0.0280    0.0280 -999.0000    0.0280    1.0000 -999.0000 -999.0000    0.6450    3.1242    7.7989 -999.0000    0.4882 -999.0000 
2057.6804    1.5727    1.6043    1.5727    8.5000    8.7401   97.7055   52.8320    0.0228    0.3097    5.9150    2.5065    0.0238    0.0238 -999.0000    0.0238    1.0000 -999.0000 -999.0000    0.6323    3.1196    7.8192 -999.0000    0.4863 -999.0000 
2057.8328    1.5979    1.6108    1.5830    8.5000    8.6952   97.8636   53.1462    0.0298    0.3149    6.4711    2.5220    0.0056    0.0056 -999.0000    0.0056    1.0000 -999.0000 -999.0000    0.6871    3.1145    7.8548 -999.0000    0.4675 -999.0000 
2057.9852    1.6045    1.6210    1.5733    8.5000    8.6952   97.5888   52.3755    0.0321    0.3295    6.6287    2.5418    0.0001    0.0001 -999.0000    0.0001    1.0000 -999.0000 -999.0000    0.7860    3.1233    7.9389 -999.0000    0.4162 -999.0000 
2058.1376    1.6527    1.6284    1.6029    8.5000    8.7177   97.0206   57.8555    0.0310    0.3313    6.4718    2.5576    0.0001    0.0001 -999.0000    0.0001    1.0000 -999.0000 -999.0000    0.8293    3.1416    8.0349 -999.0000    0.4131 -999.0000 
2058.2900    1.6721    1.6738    1.6513    8.5000    8.7626   95.8666   59.0541    0.0303    0.3255    6.1450    2.5728    0.0001    0.0001 -999.0000    0.0001    1.0000 -999.0000 -999.0000    0.8444    3.1794    8.1799 -999.0000    0.3980 -999.0000 
2058.4424    1.7112    1.7113    1.7144    8.5000    8.7177   95.2850   57.0278    0.0253    0.3134    5.7973    2.5873    0.0001    0.0001 -999.0000    0.0001    1.0000 -999.0000 -999.0000    0.8352    3.1988    8.2763 -999.0000    0.4202 -999.0000 
2058.5948    1.7531    1.7757    1.7787    8.5000    8.6727   94.3966   51.5478    0.0138    0.3100    5.4800    2.5855    0.0001    0.0001 -999.0000    0.0001    1.0000 -999.0000 -999.0000    0.8190    3.2289    8.3485 -999.0000    0.4644 -999.0000 
2058.7472    1.7810    1.8197    1.8026    8.5000    8.7626   94.5659   47.3522    0.0052    0.2930    5.2534    2.5714    0.0001    0.0001 -999.0000    0.0001    1.0000 -999.0000 -999.0000    0.7252    3.2231    8.2881 -999.0000    0.4693 -999.0000 
2058.8996    1.7699    1.8111    1.7950    8.5000    8.9200   94.5217   48.6934    0.0048    0.3049    5.2573    2.5558    0.0001    0.0001 -999.0000    0.0001    1.0000 -999.0000 -999.0000    0.7309    3.2247    8.2415 -999.0000    0.4833 -999.0000 
2059.0520    1.7382    1.7969    1.7748    8.5000    8.8750   94.8398   49.4925    0.0133    0.3106    5.4926    2.5497    0.0001    0.0001 -999.0000    0.0001    1.0000 -999.0000 -999.0000    0.7367    3.2138    8.1942 -999.0000    0.4449 -999.0000 
2059.2044    1.7049    1.7675    1.7550    8.5000    8.6277   95.0226   53.7737    0.0214    0.3268    5.8484    2.5452    0.0001    0.0001 -999.0000    0.0001    1.0000 -999.0000 -999.0000    0.7840    3.2077    8.1642 -999.0000    0.4370 -999.0000 
2059.3568    1.7310    1.7709    1.7564    8.5000    8.6052   96.4362   58.0267    0.0315    0.3450    6.0443    2.5653    0.0001    0.0001 -999.0000    0.0001    1.0000 -999.0000 -999.0000    0.8962    3.1606    8.1080 -999.0000    0.4315 -999.0000 
2059.5092    1.8016    1.8469    1.8266    8.5000    8.5828   97.0640   57.9123    0.0338    0.3586    5.9365    2.5882    0.0001    0.0001 -999.0000    0.0001    1.0000 -999.0000 -999.0000    0.9984    3.1402    8.1275 -999.0000    0.4344 -999.0000 
2059.6616    1.8047    1.8534    1.8403    8.5000    8.6727   96.3235   55.4294    0.0275    0.3614    5.5601    2.6039    0.0001    0.0001 -999.0000    0.0001    1.0000 -999.0000 -999.0000    0.9999    3.1643    8.2396 -999.0000    0.4680 -999.0000 
2059.8140    1.7475    1.7968    1.7892    8.5000    8.6727   95.9388   51.8617    0.0171    0.3446    5.0923    2.5937    0.0001    0.0001 -999.0000    0.0001    1.0000 -999.0000 -999.0000    0.9615    3.1770    8.2403 -999.0000    0.4776 -999.0000 
