~VERSION INFORMATION
 VERS.                 2.0:   CWLS LOG ASCII STANDARD - VERSION 2.0
 WRAP.                  NO:   SINGLE LINE PER DEPTH STEP
 CREA.                 01/01/2018 01:01:01 p.m.
#CREATED USING IP VERSION 4.4.2017.257 BY UNKNOWN ON 01/01/2001 01:01:01 p.m.
~WELL INFORMATION
#MNEM.UNIT       DATA                          DESCRIPTION MNEMONIC
#---------      ---------------------------   --------------------------
 STRT    .M         416.4848                  : START DEPTH
 STOP    .M         2874.0872                 : STOP DEPTH
 STEP    .M         0.1524                    : STEP VALUE
 NULL    .      -999.0000                     : NULL VALUE
 DATE    .      28/02/2018                    : LAS file Creation Date
 WELL  .      CL-1001      : Well Name
 COMP  .      Unknown            : Company
 FLD   .      CL                 : Field
 STATE .      Unknown            : State
 COUNT .      Unknown            : Country
 API   .      Unknown            : API Number
 UWI   .                         : Unique Well Identifier (UWI)
 LOC   .      Localizacion       : Location
 TOWN  .      Unknown            : Township
 RANG  .      Unknown            : Range
 LATI  .      Unknown            : Latitude/Northing
 LONG  .      Unknown            : Longitude/Easting
 PDAT  .      Unknown            : Permanent Datum
 EPDAT .      Unknown            : Elevation of Permanent Datum
 LGMEA .      Unknown            : Log Measured from
 APDAT .      Unknown            : Elevation Above Permanent Datum
 KB    .      Unknown            : KB Elevation
 DF    .      Unknown            : DF Elevation
 GL    .      Unknown            : GL Elevation
 RWS   .      -999               : Def_Rw
 WST   .      -999               : Def_Rwt
 UTMZ  .      Unknown            : UTM Zone
 BHS   .      OPEN               : Completion Status
 RIGN  .      Unknown            : Rig Name
 CNTY  .      Unknown            : County
 PROV  .      Unknown            : Province
 MDEC  .      0                  : Magnetic Declination
 SRVC  .      Unknown            : Contractor
~CURVE INFORMATION
#MNEM               UNIT       API CODE   Curve Type Comments
#----------   --------------- ----------  ---------- -----------
 DEPTH       .M                         : Depth       
 ED_AT10     .ohm.m                     : ShalRes     (AIT-M)                 (3in)                   Array Induction Two Foot Resistivity A10
 ED_AT60     .ohm.m                     : MedRes      (AIT-M)                 (3in)                   Array Induction Two Foot Resistivity A60
 ED_AT90     .ohm.m                     : DeepRes     (AIT-M)                 (3in)                   Array Induction Two Foot Resistivity A90
 ED_BS       .in                        : BitSize     (RT)    (Borehole)              (6in)                   Bit Size
 ED_CALI     .in                        : Caliper     (HDRS-H)                (1in)                   Caliper
 ED_DTCO     .us/ft                     : Sonic       (DSLT-BB)               (6in)                   Delta-T (also called Slowness or Interval Transit Time)
 ED_GR       .gAPI                      : GammaRay    (HGNS-H)                (6in)                   Calibrated Gamma Ray
 ED_HDRA     .g/cm3                     : Drho        (HDRS-H)                (2in)                   Density Standoff Correction
 ED_NPHI     .m3/m3                     : Neutron     (HGNS-H)                (6in)                   Thermal Neutron Porosity (original Ratio Method) in Selected Lithology
 ED_PEFZ     .B/E                       : PEF         (HDRS-H)                (2in)                   Standard Resolution Formation Photoelectric Factor
 ED_RHOZ     .g/cm3                     : Density     (HDRS-H)                (2in)                   Standard Resolution Formation Density
 EV_BVW_K    .Dec                       : BVW         
 EV_BVWSXO_K .Dec                       : BVWSXO      
 EV_Perm_Mtz .mD                        :             
 EV_PHIE_K   .Dec                       : Phi         
 EV_SW_K     .Dec                       : Sw          
 EV_VDolC_K  .Dec                       :             
 EV_VLimeC_K .Dec                       :             
 EV_VWCL_K   .Dec                       : Vcl         
 FR_VP_km    .Km/seg                    :             
 FR_ZP_km    .Km/seg                    :             
 I_DRHO      .                          :             
 IND_GR      .                          :             
 IND_INV     .                          :             
~A  DEPTH  ED_AT10   ED_AT60   ED_AT90    ED_BS    ED_CALI   ED_DTCO    ED_GR    ED_HDRA   ED_NPHI   ED_PEFZ   ED_RHOZ   EV_BVW_K EV_BVWSX~ EV_Perm_~ EV_PHIE_~  EV_SW_K  EV_VDolC~ EV_VLime~ EV_VWCL_~  FR_VP_km  FR_ZP_km   I_DRHO    IND_GR   IND_INV  
# ...
1123.6208    2.2248    2.5335    2.6259    8.5000    8.8301  101.2835   63.5351    0.0064    0.3854    4.9643    2.4780    0.0062    0.0064    0.0000    0.0076    0.8164    0.0000 -999.0000    0.8355    3.0094    7.4572 -999.0000    0.5981 -999.0000 
1123.7732    2.2752    2.6005    2.7112    8.5000    8.8076  100.2188   64.4769    0.0074    0.3705    4.7968    2.4776    0.0147    0.0150    0.0000    0.0177    0.8315    0.0000 -999.0000    0.7812    3.0413    7.5353 -999.0000    0.5915 -999.0000 
1123.9256    2.3501    2.7056    2.8144    8.5000    8.7626   99.6153   63.8774    0.0075    0.3466    4.8213    2.4725    0.0313    0.0313    0.0002    0.0360    0.8689    0.0000 -999.0000    0.6842    3.0598    7.5652 -999.0000    0.5924 -999.0000 
1124.0780    2.3552    2.7254    2.8468    8.5000    8.7177   99.4371   72.0692    0.0091    0.3516    4.9838    2.4726    0.0280    0.0280    0.0001    0.0331    0.8461    0.0000 -999.0000    0.7021    3.0653    7.5791 -999.0000    0.6001 -999.0000 
1124.2304    2.3326    2.7172    2.8433    8.5000    8.7401   99.8808   73.2105    0.0087    0.3567    5.1461    2.4707    0.0267    0.0267    0.0001    0.0321    0.8333    0.0000 -999.0000    0.7159    3.0516    7.5396 -999.0000    0.5904 -999.0000 
1124.3828    2.3216    2.6805    2.8003    8.5000    8.7739  100.0401   74.6091    0.0083    0.3782    5.1739    2.4712    0.0139    0.0142    0.0000    0.0175    0.7927    0.0000 -999.0000    0.7937    3.0468    7.5291 -999.0000    0.6047 -999.0000 
1124.5352    2.3160    2.6620    2.7796    8.5000    8.8750  100.4095   67.8158    0.0049    0.3976    5.1134    2.4660    0.0041    0.0043    0.0000    0.0054    0.7592    0.0000 -999.0000    0.8508    3.0356    7.4859 -999.0000    0.6308 -999.0000 
1124.6876    2.2977    2.6128    2.7232    8.5000    8.8301  100.5503   67.5877    0.0092    0.4182    5.0396    2.4833    0.0001    0.0001    0.0000    0.0001    0.6852    0.0000 -999.0000    0.9646    3.0313    7.5276 -999.0000    0.5978 -999.0000 
1124.8400    2.3018    2.5827    2.6820    8.5000    8.8301  100.2985   68.9862    0.0066    0.4226    4.9107    2.4846    0.0001    0.0001    0.0000    0.0001    1.0000    0.0000 -999.0000    0.9837    3.0389    7.5505 -999.0000    0.5504 -999.0000 
1124.9924    2.3416    2.6408    2.7434    8.5000    8.7851  100.2772   69.9854    0.0077    0.4048    4.7460    2.4981    0.0001    0.0001    0.0000    0.0001    0.6895    0.0000 -999.0000    0.9516    3.0396    7.5931 -999.0000    0.5421 -999.0000 
1125.1448    2.4030    2.6749    2.7526    8.5000    8.7851  100.0551   67.7022    0.0035    0.3736    4.5896    2.4952    0.0001    0.0001    0.0000    0.0001    0.7846    0.0000 -999.0000    0.8335    3.0463    7.6011 -999.0000    0.5464 -999.0000 
1125.2972    2.4485    2.7483    2.8174    8.5000    8.8076   98.0871   62.7072    0.0059    0.3745    4.5269    2.5060    0.0001    0.0001    0.0000    0.0001    0.7410    0.0000 -999.0000    0.8621    3.1074    7.7871 -999.0000    0.5831 -999.0000 
1125.4496    2.5448    2.8850    2.9479    8.5000    8.7851   95.8337   60.5095    0.0055    0.3685    4.5401    2.5057    0.0001    0.0001    0.0000    0.0001    0.7268    0.0000 -999.0000    0.8401    3.1805    7.9693 -999.0000    0.5668 -999.0000 
1125.6020    2.7090    3.0704    3.1183    8.5000    8.7851   93.5558   58.9109    0.0025    0.3626    4.6172    2.4991    0.0008    0.0008    0.0000    0.0011    0.7181    0.0000 -999.0000    0.8038    3.2579    8.1420 -999.0000    0.6249 -999.0000 
1125.7544    2.8734    3.1168    3.1505    8.5000    8.7851   91.0607   65.1045   -0.0009    0.3371    4.6768    2.4938    0.0164    0.0164    0.0000    0.0206    0.7975    0.0000 -999.0000    0.7000    3.3472    8.3473 -999.0000    0.6135 -999.0000 
1125.9068    2.9577    3.1224    3.1467    8.5000    8.8076   89.5837   66.8170   -0.0039    0.3155    4.6711    2.4845    0.0364    0.0364    0.0006    0.0418    0.8711    0.0000 -999.0000    0.6013    3.4024    8.4534 -999.0000    0.5609 -999.0000 
1126.0592    2.9787    3.1783    3.1166    8.5000    8.8525   89.7976   67.6452   -0.0041    0.3154    4.6264    2.4821    0.0389    0.0389    0.0011    0.0442    0.8791    0.0000 -999.0000    0.5952    3.3943    8.4249 -999.0000    0.4896 -999.0000 
1126.2116    2.9378    3.1370    3.1787    8.5000    8.8076   90.7662   61.8511   -0.0016    0.3274    4.7711    2.4841    0.0292    0.0292    0.0003    0.0354    0.8266    0.0000 -999.0000    0.6429    3.3581    8.3418 -999.0000    0.4821 -999.0000 
1126.3640    3.0430    3.3716    3.4100    8.5000    8.8413   85.6650   57.2843    0.0017    0.3430    5.1529    2.5094    0.0014    0.0014    0.0000    0.0019    0.6961    0.0000 -999.0000    0.7581    3.5580    8.9287 -999.0000    0.5020 -999.0000 
1126.5164    3.9270    4.3626    4.4412    8.5000    8.7851   78.9459   51.2900    0.0076    0.3325    5.5367    2.5800    0.0000    0.0000    0.0000    0.0001    0.4574    0.0000 -999.0000    0.8862    3.8609    9.9609 -999.0000    0.4716 -999.0000 
1126.6688    4.9783    6.1203    6.1385    8.5000    8.7401   69.9879   45.0681    0.0062    0.2803    5.6097    2.6615    0.0000    0.0000    0.0000    0.0001    0.3290    0.0000 -999.0000    0.8912    4.3550   11.5908 -999.0000    0.4380 -999.0000 
1126.8212    6.4617    6.9137    7.2952    8.5000    8.6502   63.1099   41.3291    0.0040    0.2451    5.2794    2.7171    0.0000    0.0000    0.0000    0.0001    0.2753    0.0000 -999.0000    0.8963    4.8297   13.1225 -999.0000    0.4012 -999.0000 
1126.9736    6.4378    6.5231    6.4315    8.5000    8.6727   64.7039   38.3323    0.0016    0.1925    4.8821    2.7262    0.0000    0.0000    0.0000    0.0001    0.3833    0.0000 -999.0000    0.7302    4.7107   12.8425 -999.0000    0.3980 -999.0000 
1127.1260    6.3060    6.2856    6.0662    8.5000    8.6727   67.7454   45.4106    0.0005    0.1830    4.6546    2.6808    0.0001    0.0001    0.0000    0.0001    0.5031    0.0000 -999.0000    0.5898    4.4992   12.0616 -999.0000    0.3984 -999.0000 
1127.2784    5.7469    6.0247    5.8218    8.5000    8.6727   73.8537   50.4055   -0.0020    0.1863    4.6774    2.6089    0.0001    0.0001    0.0000    0.0001    0.7150    0.0000 -999.0000    0.4324    4.1271   10.7669 -999.0000    0.4182 -999.0000 
1127.4308    5.0234    5.4765    5.2537    8.5000    8.7851   81.0340   57.9979   -0.0065    0.2252    4.7980    2.5240    0.0432    0.0432    0.0049    0.0537    0.8045    0.0000 -999.0000    0.3721    3.7614    9.4939 -999.0000    0.4317 -999.0000 
1127.5832    4.3377    5.0246    4.8328    8.5000    8.9425   85.5226   57.7695   -0.0054    0.2572    5.0157    2.4876    0.0536    0.0536    0.0288    0.0711    0.7549    0.0000 -999.0000    0.4008    3.5640    8.8658 -999.0000    0.4364 -999.0000 
1127.7356    4.5496    5.1607    4.9330    8.5000    9.0324   83.5060   60.9661   -0.0005    0.2448    5.2854    2.5027    0.0495    0.0495    0.0145    0.0634    0.7812    0.0000 -999.0000    0.3919    3.6500    9.1351 -999.0000    0.4264 -999.0000 
1127.8880    5.6154    5.7674    5.4630    8.5000    8.8301   74.8383   58.7681    0.0179    0.2148    5.4106    2.5729    0.0089    0.0089    0.0000    0.0122    0.7283    0.0000 -999.0000    0.4495    4.0728   10.4787 -999.0000    0.4212 -999.0000 
1128.0404    6.6321    6.3564    6.2277    8.5000    8.7626   74.2168   55.5715    0.0306    0.1880    5.1659    2.6256    0.0001    0.0001    0.0000    0.0001    0.6050    0.0000 -999.0000    0.4778    4.1069   10.7830 -999.0000    0.4594 -999.0000 
1128.1928    5.4182    5.4133    5.2593    8.5000    8.7401   76.6289   57.5695    0.0284    0.2235    4.6627    2.6235    0.0001    0.0001    0.0000    0.0001    0.5707    0.0000 -999.0000    0.5997    3.9776   10.4352 -999.0000    0.5025 -999.0000 
1128.3452    4.1192    4.3330    4.3287    8.5000    8.8076   81.2376   58.3688    0.0121    0.2901    4.2649    2.5704    0.0001    0.0001    0.0000    0.0001    0.5837    0.0000 -999.0000    0.7124    3.7520    9.6439 -999.0000    0.5552 -999.0000 
