~VERSION INFORMATION
 VERS.                 2.0:   CWLS LOG ASCII STANDARD - VERSION 2.0
 WRAP.                  NO:   SINGLE LINE PER DEPTH STEP
 CREA.                 01/01/2018 01:01:01 p.m.
#CREATED USING IP VERSION 4.4.2017.257 BY UNKNOWN ON 01/01/2001 01:01:01 p.m.
~WELL INFORMATION
#MNEM.UNIT       DATA                          DESCRIPTION MNEMONIC
#---------      ---------------------------   --------------------------
 STRT    .M         416.4848                  : START DEPTH
 STOP    .M         2874.0872                 : STOP DEPTH
 STEP    .M         0.1524                    : STEP VALUE
 NULL    .      -999.0000                     : NULL VALUE
 DATE    .      28/02/2018                    : LAS file Creation Date
 WELL  .      CL-1001      : Well Name
 COMP  .      Unknown            : Company
 FLD   .      CL                 : Field
 STATE .      Unknown            : State
 COUNT .      Unknown            : Country
 API   .      Unknown            : API Number
 UWI   .                         : Unique Well Identifier (UWI)
 LOC   .      Localizacion       : Location
 TOWN  .      Unknown            : Township
 RANG  .      Unknown            : Range
 LATI  .      Unknown            : Latitude/Northing
 LONG  .      Unknown            : Longitude/Easting
 PDAT  .      Unknown            : Permanent Datum
 EPDAT .      Unknown            : Elevation of Permanent Datum
 LGMEA .      Unknown            : Log Measured from
 APDAT .      Unknown            : Elevation Above Permanent Datum
 KB    .      Unknown            : KB Elevation
 DF    .      Unknown            : DF Elevation
 GL    .      Unknown            : GL Elevation
 RWS   .      -999               : Def_Rw
 WST   .      -999               : Def_Rwt
 UTMZ  .      Unknown            : UTM Zone
 BHS   .      OPEN               : Completion Status
 RIGN  .      Unknown            : Rig Name
 CNTY  .      Unknown            : County
 PROV  .      Unknown            : Province
 MDEC  .      0                  : Magnetic Declination
 SRVC  .      Unknown            : Contractor
~CURVE INFORMATION
#MNEM               UNIT       API CODE   Curve Type Comments
#----------   --------------- ----------  ---------- -----------
 DEPTH       .M                         : Depth       
 ED_AT10     .ohm.m                     : ShalRes     (AIT-M)                 (3in)                   Array Induction Two Foot Resistivity A10
 ED_AT60     .ohm.m                     : MedRes      (AIT-M)                 (3in)                   Array Induction Two Foot Resistivity A60
 ED_AT90     .ohm.m                     : DeepRes     (AIT-M)                 (3in)                   Array Induction Two Foot Resistivity A90
 ED_BS       .in                        : BitSize     (RT)    (Borehole)              (6in)                   Bit Size
 ED_CALI     .in                        : Caliper     (HDRS-H)                (1in)                   Caliper
 ED_DTCO     .us/ft                     : Sonic       (DSLT-BB)               (6in)                   Delta-T (also called Slowness or Interval Transit Time)
 ED_GR       .gAPI                      : GammaRay    (HGNS-H)                (6in)                   Calibrated Gamma Ray
 ED_HDRA     .g/cm3                     : Drho        (HDRS-H)                (2in)                   Density Standoff Correction
 ED_NPHI     .m3/m3                     : Neutron     (HGNS-H)                (6in)                   Thermal Neutron Porosity (original Ratio Method) in Selected Lithology
 ED_PEFZ     .B/E                       : PEF         (HDRS-H)                (2in)                   Standard Resolution Formation Photoelectric Factor
 ED_RHOZ     .g/cm3                     : Density     (HDRS-H)                (2in)                   Standard Resolution Formation Density
 EV_BVW_K    .Dec                       : BVW         
 EV_BVWSXO_K .Dec                       : BVWSXO      
 EV_Perm_Mtz .mD                        :             
 EV_PHIE_K   .Dec                       : Phi         
 EV_SW_K     .Dec                       : Sw          
 EV_VDolC_K  .Dec                       :             
 EV_VLimeC_K .Dec                       :             
 EV_VWCL_K   .Dec                       : Vcl         
 FR_VP_km    .Km/seg                    :             
 FR_ZP_km    .Km/seg                    :             
 I_DRHO      .                          :             
 IND_GR      .                          :             
 IND_INV     .                          :             
~A  DEPTH  ED_AT10   ED_AT60   ED_AT90    ED_BS    ED_CALI   ED_DTCO    ED_GR    ED_HDRA   ED_NPHI   ED_PEFZ   ED_RHOZ   EV_BVW_K EV_BVWSX~ EV_Perm_~ EV_PHIE_~  EV_SW_K  EV_VDolC~ EV_VLime~ EV_VWCL_~  FR_VP_km  FR_ZP_km   I_DRHO    IND_GR   IND_INV  
# ...
 816.3824    1.8406    2.1392    2.1542    8.5000    8.9425  102.4387   73.8669    0.0135    0.4142    6.1486    2.4292    0.0097    0.0097 -999.0000    0.0097    1.0000    0.0000 -999.0000    0.8238    2.9754    7.2281 -999.0000    0.6909 -999.0000 
 816.5348    1.8764    2.1889    2.1973    8.5000    8.8301   99.0308   69.1578    0.0026    0.3551    5.8106    2.4199    0.0832    0.0832 -999.0000    0.0832    1.0000    0.0000 -999.0000    0.5910    3.0778    7.4481 -999.0000    0.6571 -999.0000 
 816.6872    1.9168    2.2238    2.2290    8.5000    8.8525   97.4321   70.2136   -0.0001    0.3374    5.5046    2.4249    0.0883    0.0883 -999.0000    0.0883    1.0000    0.0000 -999.0000    0.5396    3.1283    7.5860 -999.0000    0.6201 -999.0000 
 816.8396    1.9585    2.2576    2.2723    8.5000    8.8750   98.1804   72.2114    0.0001    0.3178    5.4059    2.4306    0.0939    0.0939 -999.0000    0.0939    1.0000    0.0000 -999.0000    0.4832    3.1045    7.5457 -999.0000    0.5374 -999.0000 
 816.9920    1.9978    2.3022    2.3334    8.5000    8.8525   98.4883   73.3529    0.0101    0.3117    5.4248    2.4436    0.0845    0.0845 -999.0000    0.0845    1.0000    0.0000 -999.0000    0.4917    3.0948    7.5625 -999.0000    0.5412 -999.0000 
 817.1444    1.9970    2.3027    2.3545    8.5000    8.9425  100.9238   71.1553    0.0171    0.3214    5.7909    2.4288    0.0936    0.0936 -999.0000    0.0936    1.0000    0.0000 -999.0000    0.4918    3.0201    7.3352 -999.0000    0.6032 -999.0000 
 817.2968    1.9187    2.2318    2.2718    8.5000    9.0773  103.8163   65.9607    0.0297    0.3205    6.4037    2.4186    0.1041    0.1041 -999.0000    0.1041    1.0000    0.0000 -999.0000    0.4646    2.9360    7.1009 -999.0000    0.6629 -999.0000 
 817.4492    1.8409    2.1284    2.1568    8.5000    9.0324  104.8591   69.8425    0.0435    0.3405    6.9478    2.4445    0.0673    0.0673 -999.0000    0.0673    1.0000    0.0000 -999.0000    0.5967    2.9068    7.1055 -999.0000    0.6857 -999.0000 
 817.6016    1.7733    2.0410    2.0610    8.5000    9.0549  104.5945   73.4389    0.0538    0.3519    7.0911    2.4881    0.0181    0.0181 -999.0000    0.0181    1.0000    0.0000 -999.0000    0.7395    2.9141    7.2505 -999.0000    0.6765 -999.0000 
 817.7540    1.7342    1.9748    1.9948    8.5000    9.1223  104.0205   74.1523    0.0505    0.3633    6.8172    2.5064    0.0001    0.0001 -999.0000    0.0001    1.0000    0.0000 -999.0000    0.8230    2.9302    7.3441 -999.0000    0.7021 -999.0000 
 817.9064    1.7315    1.9650    1.9901    8.5000    9.2122  102.5944   70.8416    0.0335    0.3548    6.4698    2.4819    0.0225    0.0225 -999.0000    0.0225    1.0000    0.0000 -999.0000    0.7356    2.9709    7.3735 -999.0000    0.7305 -999.0000 
 818.0588    1.7749    1.9897    2.0178    8.5000    9.1223  101.5026   71.4408    0.0213    0.3301    6.1033    2.4619    0.0561    0.0561 -999.0000    0.0561    1.0000    0.0000 -999.0000    0.6002    3.0029    7.3927 -999.0000    0.7170 -999.0000 
 818.2112    1.8262    2.0364    2.0627    8.5000    9.1111  100.7760   74.6374    0.0143    0.3290    5.7128    2.4574    0.0612    0.0612 -999.0000    0.0612    1.0000    0.0000 -999.0000    0.5857    3.0245    7.4324 -999.0000    0.6867 -999.0000 
 818.3636    1.8534    2.0996    2.1028    8.5000    9.2122  100.6318   76.6356    0.0073    0.4111    5.3216    2.4405    0.0070    0.0070 -999.0000    0.0070    1.0000    0.0000 -999.0000    0.8390    3.0289    7.3920 -999.0000    0.6593 -999.0000 
 818.5160    1.8960    2.1324    2.1218    8.5000    9.2122  100.5967   77.2350    0.0010    0.4391    5.0168    2.4179    0.0022    0.0022 -999.0000    0.0023    0.9570    0.0000 -999.0000    0.8859    3.0299    7.3261 -999.0000    0.6836 -999.0000 
 818.6684    1.9320    2.1933    2.1518    8.5000    9.1223  100.1284   75.4086   -0.0043    0.4462    4.9651    2.3913    0.0056    0.0056 -999.0000    0.0057    0.9824    0.0000 -999.0000    0.8487    3.0441    7.2794 -999.0000    0.6838 -999.0000 
 818.8208    1.9565    2.2589    2.2294    8.5000    9.1223   99.3611   78.2055   -0.0038    0.3775    5.0344    2.3913    0.0883    0.0883 -999.0000    0.0979    0.9022    0.0000 -999.0000    0.6035    3.0676    7.3356 -999.0000    0.6418 -999.0000 
 818.9732    1.9651    2.2802    2.2558    8.5000    9.1448   98.7610   73.6102   -0.0036    0.3851    5.1363    2.3951    0.0792    0.0792 -999.0000    0.0897    0.8832    0.0000 -999.0000    0.6398    3.0862    7.3919 -999.0000    0.6325 -999.0000 
 819.1256    1.9639    2.2747    2.2613    8.5000    9.0773   98.5584   75.2086   -0.0042    0.4111    5.2349    2.3948    0.0463    0.0463 -999.0000    0.0491    0.9419    0.0000 -999.0000    0.7317    3.0926    7.4061 -999.0000    0.6287 -999.0000 
 819.2780    1.9293    2.2146    2.2258    8.5000    8.9649   98.5456   67.4164   -0.0029    0.4004    5.3272    2.3997    0.0632    0.0632 -999.0000    0.0710    0.8901    0.0000 -999.0000    0.7050    3.0930    7.4224 -999.0000    0.6616 -999.0000 
 819.4304    1.8602    2.1519    2.1484    8.5000    8.8525   98.6301   69.4144    0.0089    0.3815    5.2789    2.4271    0.0592    0.0592 -999.0000    0.0610    0.9698    0.0000 -999.0000    0.7019    3.0903    7.5006 -999.0000    0.6694 -999.0000 
 819.5828    1.7932    2.0796    2.0868    8.5000    8.8638   99.8594   68.7293    0.0235    0.3598    5.0434    2.4684    0.0330    0.0330 -999.0000    0.0330    1.0000    0.0000 -999.0000    0.7215    3.0523    7.5342 -999.0000    0.6540 -999.0000 
 819.7352    1.7204    2.0122    2.0201    8.5000    8.9425  101.3404   70.4704    0.0257    0.3977    4.7311    2.4677    0.0049    0.0049 -999.0000    0.0049    1.0000    0.0000 -999.0000    0.8548    3.0077    7.4220 -999.0000    0.6402 -999.0000 
 819.8876    1.6271    1.8955    1.9083    8.5000    8.9425  104.4358   70.0707    0.0164    0.4280    4.6437    2.4217    0.0049    0.0049 -999.0000    0.0049    1.0000    0.0000 -999.0000    0.8553    2.9185    7.0679 -999.0000    0.6231 -999.0000 
 820.0400    1.5796    1.8007    1.8530    8.5000    9.0324  108.5750   73.0677    0.0059    0.4424    4.8712    2.3764    0.0156    0.0156 -999.0000    0.0156    1.0000    0.0000 -999.0000    0.7999    2.8073    6.6711 -999.0000    0.6450 -999.0000 
 820.1924    1.5942    1.8284    1.9130    8.5000    9.0324  108.4652   71.3266    0.0071    0.3931    5.1765    2.3753    0.0996    0.0996 -999.0000    0.1050    0.9491    0.0000 -999.0000    0.6217    2.8101    6.6749 -999.0000    0.6582 -999.0000 
 820.3448    1.7081    1.9032    1.9856    8.5000    9.0773  107.1590   69.5285    0.0129    0.3619    5.2168    2.4266    0.0728    0.0728 -999.0000    0.0728    1.0000    0.0000 -999.0000    0.6308    2.8444    6.9022 -999.0000    0.6627 -999.0000 
 820.4972    1.8115    1.9632    2.0461    8.5000    9.1223  103.2679   62.3358    0.0139    0.3289    5.0448    2.4576    0.0610    0.0610 -999.0000    0.0610    1.0000    0.0000 -999.0000    0.5860    2.9515    7.2537 -999.0000    0.6843 -999.0000 
 820.6496    1.7967    2.0033    2.0724    8.5000    9.0324   98.2832   65.5326    0.0153    0.3205    4.9412    2.4718    0.0518    0.0518 -999.0000    0.0518    1.0000    0.0000 -999.0000    0.5893    3.1012    7.6656 -999.0000    0.6559 -999.0000 
 820.8020    1.8210    2.0495    2.0910    8.5000    8.9200   99.1010   66.9027    0.0163    0.3321    5.0238    2.4659    0.0511    0.0511 -999.0000    0.0511    1.0000    0.0000 -999.0000    0.6168    3.0757    7.5841 -999.0000    0.6260 -999.0000 
 820.9544    1.8196    2.0800    2.0917    8.5000    8.8975   99.9115   72.2969    0.0161    0.3321    5.1098    2.4579    0.0589    0.0589 -999.0000    0.0589    1.0000    0.0000 -999.0000    0.5982    3.0507    7.4984 -999.0000    0.5553 -999.0000 
 821.1068    1.8499    2.1534    2.1250    8.5000    8.8750  101.2488   73.4959    0.0124    0.3634    5.0909    2.4471    0.0518    0.0518 -999.0000    0.0518    1.0000    0.0000 -999.0000    0.6843    3.0104    7.3669 -999.0000    0.5655 -999.0000 
