~VERSION INFORMATION
 VERS.                 2.0:   CWLS LOG ASCII STANDARD - VERSION 2.0
 WRAP.                  NO:   SINGLE LINE PER DEPTH STEP
 CREA.                 01/01/2018 01:01:01 p.m.
#CREATED USING IP VERSION 4.4.2017.257 BY UNKNOWN ON 01/01/2001 01:01:01 p.m.
~WELL INFORMATION
#MNEM.UNIT       DATA                          DESCRIPTION MNEMONIC
#---------      ---------------------------   --------------------------
 STRT    .M         416.4848                  : START DEPTH
 STOP    .M         2874.0872                 : STOP DEPTH
 STEP    .M         0.1524                    : STEP VALUE
 NULL    .      -999.0000                     : NULL VALUE
 DATE    .      28/02/2018                    : LAS file Creation Date
 WELL  .      CL-1001      : Well Name
 COMP  .      Unknown            : Company
 FLD   .      CL                 : Field
 STATE .      Unknown            : State
 COUNT .      Unknown            : Country
 API   .      Unknown            : API Number
 UWI   .                         : Unique Well Identifier (UWI)
 LOC   .      Localizacion       : Location
 TOWN  .      Unknown            : Township
 RANG  .      Unknown            : Range
 LATI  .      Unknown            : Latitude/Northing
 LONG  .      Unknown            : Longitude/Easting
 PDAT  .      Unknown            : Permanent Datum
 EPDAT .      Unknown            : Elevation of Permanent Datum
 LGMEA .      Unknown            : Log Measured from
 APDAT .      Unknown            : Elevation Above Permanent Datum
 KB    .      Unknown            : KB Elevation
 DF    .      Unknown            : DF Elevation
 GL    .      Unknown            : GL Elevation
 RWS   .      -999               : Def_Rw
 WST   .      -999               : Def_Rwt
 UTMZ  .      Unknown            : UTM Zone
 BHS   .      OPEN               : Completion Status
 RIGN  .      Unknown            : Rig Name
 CNTY  .      Unknown            : County
 PROV  .      Unknown            : Province
 MDEC  .      0                  : Magnetic Declination
 SRVC  .      Unknown            : Contractor
~CURVE INFORMATION
#MNEM               UNIT       API CODE   Curve Type Comments
#----------   --------------- ----------  ---------- -----------
 DEPTH       .M                         : Depth       
 ED_AT10     .ohm.m                     : ShalRes     (AIT-M)                 (3in)                   Array Induction Two Foot Resistivity A10
 ED_AT60     .ohm.m                     : MedRes      (AIT-M)                 (3in)                   Array Induction Two Foot Resistivity A60
 ED_AT90     .ohm.m                     : DeepRes     (AIT-M)                 (3in)                   Array Induction Two Foot Resistivity A90
 ED_BS       .in                        : BitSize     (RT)    (Borehole)              (6in)                   Bit Size
 ED_CALI     .in                        : Caliper     (HDRS-H)                (1in)                   Caliper
 ED_DTCO     .us/ft                     : Sonic       (DSLT-BB)               (6in)                   Delta-T (also called Slowness or Interval Transit Time)
 ED_GR       .gAPI                      : GammaRay    (HGNS-H)                (6in)                   Calibrated Gamma Ray
 ED_HDRA     .g/cm3                     : Drho        (HDRS-H)                (2in)                   Density Standoff Correction
 ED_NPHI     .m3/m3                     : Neutron     (HGNS-H)                (6in)                   Thermal Neutron Porosity (original Ratio Method) in Selected Lithology
 ED_PEFZ     .B/E                       : PEF         (HDRS-H)                (2in)                   Standard Resolution Formation Photoelectric Factor
 ED_RHOZ     .g/cm3                     : Density     (HDRS-H)                (2in)                   Standard Resolution Formation Density
 EV_BVW_K    .Dec                       : BVW         
 EV_BVWSXO_K .Dec                       : BVWSXO      
 EV_Perm_Mtz .mD                        :             
 EV_PHIE_K   .Dec                       : Phi         
 EV_SW_K     .Dec                       : Sw          
 EV_VDolC_K  .Dec                       :             
 EV_VLimeC_K .Dec                       :             
 EV_VWCL_K   .Dec                       : Vcl         
 FR_VP_km    .Km/seg                    :             
 FR_ZP_km    .Km/seg                    :             
 I_DRHO      .                          :             
 IND_GR      .                          :             
 IND_INV     .                          :             
~A  DEPTH  ED_AT10   ED_AT60   ED_AT90    ED_BS    ED_CALI   ED_DTCO    ED_GR    ED_HDRA   ED_NPHI   ED_PEFZ   ED_RHOZ   EV_BVW_K EV_BVWSX~ EV_Perm_~ EV_PHIE_~  EV_SW_K  EV_VDolC~ EV_VLime~ EV_VWCL_~  FR_VP_km  FR_ZP_km   I_DRHO    IND_GR   IND_INV  
# ...
 504.2672 -999.0000 -999.0000 -999.0000 -999.0000 -999.0000 -999.0000 -999.0000 -999.0000 -999.0000 -999.0000 -999.0000 -999.0000 -999.0000 -999.0000 -999.0000 -999.0000 -999.0000 -999.0000 -999.0000   -0.3051  304.8000 -999.0000    0.0000 -999.0000 
 504.4196 -999.0000 -999.0000 -999.0000 -999.0000 -999.0000 -999.0000 -999.0000 -999.0000 -999.0000 -999.0000 -999.0000 -999.0000 -999.0000 -999.0000 -999.0000 -999.0000 -999.0000 -999.0000 -999.0000   -0.3051  304.8000 -999.0000    0.0000 -999.0000 
 504.5720 -999.0000 -999.0000 -999.0000 -999.0000 -999.0000 -999.0000 -999.0000 -999.0000 -999.0000 -999.0000 -999.0000 -999.0000 -999.0000 -999.0000 -999.0000 -999.0000 -999.0000 -999.0000 -999.0000   -0.3051  304.8000 -999.0000    0.0000 -999.0000 
 504.7244 -999.0000 -999.0000 -999.0000 -999.0000 -999.0000 -999.0000 -999.0000 -999.0000 -999.0000 -999.0000 -999.0000 -999.0000 -999.0000 -999.0000 -999.0000 -999.0000 -999.0000 -999.0000 -999.0000   -0.3051  304.8000 -999.0000    0.0000 -999.0000 
 504.8768 -999.0000 -999.0000 -999.0000    8.5000    9.4146  110.9030   70.8130    0.0622 -999.0000    6.8060    2.1706 -999.0000 -999.0000 -999.0000 -999.0000 -999.0000 -999.0000 -999.0000 -999.0000    2.7483    5.9655 -999.0000    0.0000 -999.0000 
 505.0292    1.7486    2.4564    2.5568    8.5000    9.5270  121.0346   69.8993    0.1077    0.3687    6.7642    2.2900    0.1556    0.1556 -999.0000    0.1990    0.7819 -999.0000 -999.0000    0.3343    2.5183    5.7668 -999.0000    0.4721 -999.0000 
 505.1816    2.3032    2.4628    2.1497    8.5000    9.5720  107.6563   65.7039    0.1186    0.3102    7.2749    2.3693    0.1580    0.1580 -999.0000    0.1580    1.0000 -999.0000 -999.0000    0.3119    2.8312    6.7080 -999.0000    0.5185 -999.0000 
 505.3340    3.1544    2.7534    2.2083    8.5000    9.6619   94.5414   68.6151    0.0981    0.3130    7.9454    2.3895    0.1367    0.1367 -999.0000    0.1367    1.0000 -999.0000 -999.0000    0.3694    3.2240    7.7038 -999.0000    0.5771 -999.0000 
 505.4864    2.7987    2.7132    1.7211    8.5000   10.2464   90.6414   66.2462    0.0540    0.3483    8.3214    2.3727    0.1332    0.1332 -999.0000    0.1332    1.0000 -999.0000 -999.0000    0.4560    3.3627    7.9788 -999.0000    0.5673 -999.0000 
 505.6388    2.8053    2.5757    1.7194    8.5000   11.8202   87.3939   71.8402    0.0289    0.3299    8.1812    2.3911    0.1256    0.1256 -999.0000    0.1256    1.0000 -999.0000 -999.0000    0.4336    3.4877    8.3393 -999.0000    0.5734 -999.0000 
 505.7912    3.3857    2.4507    1.8434    8.5000   11.6066   82.1807   75.9214    0.0420    0.3229    7.6982    2.4904    0.0322    0.0322 -999.0000    0.0322    1.0000 -999.0000 -999.0000    0.6416    3.7089    9.2365 -999.0000    0.5755 -999.0000 
 505.9436    3.5554    2.6627    2.2447    8.5000   11.3480   88.9619   82.4006    0.0570    0.3051    6.8202    2.5825    0.0001    0.0001 -999.0000    0.0001    1.0000 -999.0000 -999.0000    0.7942    3.4262    8.8480 -999.0000    0.6367 -999.0000 
 506.0960    4.0879    2.9760    2.8208    8.5000    9.0549   89.6374   82.4010    0.0516    0.3344    5.8289    2.6116    0.0001    0.0001 -999.0000    0.0001    0.6598 -999.0000 -999.0000    0.9671    3.4004    8.8805 -999.0000    0.6877 -999.0000 
 506.2484    4.4329    3.2479    3.6369    8.5000    9.0324   92.1857   82.2015    0.0184    0.3059    4.9745    2.5584    0.0001    0.0001 -999.0000    0.0001    0.6681 -999.0000 -999.0000    0.7408    3.3064    8.4592 -999.0000    0.7790 -999.0000 
 506.4008    4.3528    3.9790    3.8293    8.5000    8.9874   87.3944   82.6578    0.0020    0.2853    4.5376    2.5153    0.0230    0.0230 -999.0000    0.0286    0.8043 -999.0000 -999.0000    0.5660    3.4876    8.7723 -999.0000    0.7761 -999.0000 
 506.5532    4.2924    4.3059    3.8921    8.5000    8.9874   86.3506   86.2542    0.0042    0.2537    4.3308    2.5165    0.0420    0.0420 -999.0000    0.0453    0.9271 -999.0000 -999.0000    0.4562    3.5298    8.8829 -999.0000    0.7961 -999.0000 
 506.7056    4.1656    4.7098    3.9421    8.5000    8.9874   87.3468   88.4520    0.0112    0.2555    4.2056    2.5224    0.0346    0.0346 -999.0000    0.0385    0.8996 -999.0000 -999.0000    0.4766    3.4895    8.8021 -999.0000    0.7722 -999.0000 
 506.8580    3.8819    4.6840    3.8760    8.5000    9.0324   89.0913   85.7121    0.0112    0.2560    4.2044    2.5176    0.0394    0.0394 -999.0000    0.0430    0.9182 -999.0000 -999.0000    0.4670    3.4212    8.6132 -999.0000    0.7808 -999.0000 
 507.0104    3.5642    4.1241    3.6373    8.5000    9.1223   89.9712   82.5151    0.0105    0.2840    4.4307    2.5124    0.0275    0.0275 -999.0000    0.0322    0.8549 -999.0000 -999.0000    0.5547    3.3878    8.5115 -999.0000    0.7592 -999.0000 
 507.1628    3.4367    3.8808    3.4850    8.5000    9.0998   91.1628   84.9122    0.0055    0.3049    4.6670    2.5008    0.0262    0.0262 -999.0000    0.0318    0.8235 -999.0000 -999.0000    0.6018    3.3435    8.3612 -999.0000    0.7636 -999.0000 
 507.3152    3.4085    3.8298    3.5473    8.5000    9.1223   91.6570   83.7706    0.0104    0.2969    4.7440    2.5117    0.0211    0.0211 -999.0000    0.0256    0.8246 -999.0000 -999.0000    0.5989    3.3254    8.3525 -999.0000    0.7638 -999.0000 
 507.4676    3.3935    3.7137    3.5309    8.5000    9.0886   92.5286   81.7728    0.0099    0.2721    4.6232    2.5076    0.0410    0.0410 -999.0000    0.0438    0.9362 -999.0000 -999.0000    0.5008    3.2941    8.2603 -999.0000    0.7717 -999.0000 
 507.6200    3.1478    3.4690    3.4782    8.5000    9.0549   93.7230   78.7764    0.0125    0.2721    4.5814    2.5106    0.0387    0.0387 -999.0000    0.0409    0.9462 -999.0000 -999.0000    0.5078    3.2521    8.1647 -999.0000    0.7189 -999.0000 
 507.7724    2.9384    3.2415    3.2663    8.5000    9.0099   94.1137   75.3511    0.0136    0.2872    4.6718    2.5089    0.0319    0.0319 -999.0000    0.0340    0.9379 -999.0000 -999.0000    0.5577    3.2386    8.1254 -999.0000    0.7158 -999.0000 
 507.9248    2.9599    3.2721    3.2900    8.5000    8.9537   93.7658   81.1452    0.0110    0.3014    4.7827    2.5022    0.0286    0.0286 -999.0000    0.0325    0.8817 -999.0000 -999.0000    0.5927    3.2507    8.1337 -999.0000    0.6587 -999.0000 
 508.0772    3.1098    3.4579    3.4602    8.5000    8.9425   91.3463   75.7505    0.0049    0.3013    4.7534    2.4965    0.0322    0.0322 -999.0000    0.0380    0.8470 -999.0000 -999.0000    0.5788    3.3368    8.3303 -999.0000    0.6804 -999.0000 
 508.2296    3.2692    3.5905    3.5638    8.5000    8.9200   91.1164   83.5143   -0.0001    0.2928    4.5891    2.4996    0.0339    0.0339 -999.0000    0.0398    0.8520 -999.0000 -999.0000    0.5558    3.3452    8.3615 -999.0000    0.6744 -999.0000 
 508.3820    3.1677    3.5384    3.4889    8.5000    8.9312   91.7683   80.3171    0.0023    0.2833    4.3899    2.5139    0.0278    0.0278 -999.0000    0.0312    0.8907 -999.0000 -999.0000    0.5555    3.3214    8.3498 -999.0000    0.7209 -999.0000 
 508.5344    3.0246    3.4557    3.3963    8.5000    8.9425   92.4895   88.4515    0.0040    0.2708    4.2753    2.5194    0.0317    0.0317 -999.0000    0.0329    0.9623 -999.0000 -999.0000    0.5240    3.2955    8.3028 -999.0000    0.7266 -999.0000 
 508.6868    3.0208    3.4251    3.3531    8.5000    9.0099   93.6032   85.8540    0.0030    0.2810    4.3141    2.5156    0.0288    0.0288 -999.0000    0.0309    0.9325 -999.0000 -999.0000    0.5515    3.2563    8.1917 -999.0000    0.7455 -999.0000 
 508.8392    3.0424    3.4400    3.3601    8.5000    9.0549   93.4481   85.2551    0.0003    0.2974    4.4177    2.5033    0.0295    0.0295 -999.0000    0.0336    0.8784 -999.0000 -999.0000    0.5810    3.2617    8.1650 -999.0000    0.7548 -999.0000 
 508.9916    3.0221    3.3893    3.3283    8.5000    9.0773   92.2516   82.9721   -0.0019    0.3003    4.4729    2.4883    0.0414    0.0414 -999.0000    0.0467    0.8880 -999.0000 -999.0000    0.5560    3.3040    8.2214 -999.0000    0.7251 -999.0000 
