~VERSION INFORMATION
 VERS.                 2.0:   CWLS LOG ASCII STANDARD - VERSION 2.0
 WRAP.                  NO:   SINGLE LINE PER DEPTH STEP
 CREA.                 01/01/2018 01:01:01 p.m.
#CREATED USING IP VERSION 4.4.2017.257 BY UNKNOWN ON 01/01/2001 01:01:01 p.m.
~WELL INFORMATION
#MNEM.UNIT       DATA                          DESCRIPTION MNEMONIC
#---------      ---------------------------   --------------------------
 STRT    .M         416.4848                  : START DEPTH
 STOP    .M         2874.0872                 : STOP DEPTH
 STEP    .M         0.1524                    : STEP VALUE
 NULL    .      -999.0000                     : NULL VALUE
 DATE    .      28/02/2018                    : LAS file Creation Date
 WELL  .      CL-1001      : Well Name
 COMP  .      Unknown            : Company
 FLD   .      CL                 : Field
 STATE .      Unknown            : State
 COUNT .      Unknown            : Country
 API   .      Unknown            : API Number
 UWI   .                         : Unique Well Identifier (UWI)
 LOC   .      Localizacion       : Location
 TOWN  .      Unknown            : Township
 RANG  .      Unknown            : Range
 LATI  .      Unknown            : Latitude/Northing
 LONG  .      Unknown            : Longitude/Easting
 PDAT  .      Unknown            : Permanent Datum
 EPDAT .      Unknown            : Elevation of Permanent Datum
 LGMEA .      Unknown            : Log Measured from
 APDAT .      Unknown            : Elevation Above Permanent Datum
 KB    .      Unknown            : KB Elevation
 DF    .      Unknown            : DF Elevation
 GL    .      Unknown            : GL Elevation
 RWS   .      -999               : Def_Rw
 WST   .      -999               : Def_Rwt
 UTMZ  .      Unknown            : UTM Zone
 BHS   .      OPEN               : Completion Status
 RIGN  .      Unknown            : Rig Name
 CNTY  .      Unknown            : County
 PROV  .      Unknown            : Province
 MDEC  .      0                  : Magnetic Declination
 SRVC  .      Unknown            : Contractor
~CURVE INFORMATION
#MNEM               UNIT       API CODE   Curve Type Comments
#----------   --------------- ----------  ---------- -----------
 DEPTH       .M                         : Depth       
 ED_AT10     .ohm.m                     : ShalRes     (AIT-M)                 (3in)                   Array Induction Two Foot Resistivity A10
 ED_AT60     .ohm.m                     : MedRes      (AIT-M)                 (3in)                   Array Induction Two Foot Resistivity A60
 ED_AT90     .ohm.m                     : DeepRes     (AIT-M)                 (3in)                   Array Induction Two Foot Resistivity A90
 ED_BS       .in                        : BitSize     (RT)    (Borehole)              (6in)                   Bit Size
 ED_CALI     .in                        : Caliper     (HDRS-H)                (1in)                   Caliper
 ED_DTCO     .us/ft                     : Sonic       (DSLT-BB)               (6in)                   Delta-T (also called Slowness or Interval Transit Time)
 ED_GR       .gAPI                      : GammaRay    (HGNS-H)                (6in)                   Calibrated Gamma Ray
 ED_HDRA     .g/cm3                     : Drho        (HDRS-H)                (2in)                   Density Standoff Correction
 ED_NPHI     .m3/m3                     : Neutron     (HGNS-H)                (6in)                   Thermal Neutron Porosity (original Ratio Method) in Selected Lithology
 ED_PEFZ     .B/E                       : PEF         (HDRS-H)                (2in)                   Standard Resolution Formation Photoelectric Factor
 ED_RHOZ     .g/cm3                     : Density     (HDRS-H)                (2in)                   Standard Resolution Formation Density
 EV_BVW_K    .Dec                       : BVW         
 EV_BVWSXO_K .Dec                       : BVWSXO      
 EV_Perm_Mtz .mD                        :             
 EV_PHIE_K   .Dec                       : Phi         
 EV_SW_K     .Dec                       : Sw          
 EV_VDolC_K  .Dec                       :             
 EV_VLimeC_K .Dec                       :             
 EV_VWCL_K   .Dec                       : Vcl         
 FR_VP_km    .Km/seg                    :             
 FR_ZP_km    .Km/seg                    :             
 I_DRHO      .                          :             
 IND_GR      .                          :             
 IND_INV     .                          :             
~A  DEPTH  ED_AT10   ED_AT60   ED_AT90    ED_BS    ED_CALI   ED_DTCO    ED_GR    ED_HDRA   ED_NPHI   ED_PEFZ   ED_RHOZ   EV_BVW_K EV_BVWSX~ EV_Perm_~ EV_PHIE_~  EV_SW_K  EV_VDolC~ EV_VLime~ EV_VWCL_~  FR_VP_km  FR_ZP_km   I_DRHO    IND_GR   IND_INV  
# ...
1591.7936    1.9659    2.2969    2.3088    8.5000    9.0099  105.0430   60.5379   -0.0002    0.3979    4.8234    2.4470    0.0129    0.0129 -999.0000    0.0136    0.9485 -999.0000 -999.0000    0.8071    2.9017    7.1004 -999.0000    0.4954 -999.0000 
1591.9460    1.7786    1.9811    2.0034    8.5000    9.0773  106.6785   62.2506   -0.0014    0.4114    4.8272    2.4369    0.0082    0.0082 -999.0000    0.0082    1.0000 -999.0000 -999.0000    0.8317    2.8572    6.9628 -999.0000    0.5594 -999.0000 
1592.0984    1.5752    1.7096    1.7335    8.5000    9.0099  107.6714   60.1671   -0.0013    0.4050    4.9391    2.4282    0.0194    0.0194 -999.0000    0.0194    1.0000 -999.0000 -999.0000    0.7883    2.8308    6.8739 -999.0000    0.5950 -999.0000 
1592.2508    1.6452    1.7653    1.7927    8.5000    9.0099  105.9572   63.6496    0.0136    0.3896    5.2422    2.4506    0.0202    0.0202 -999.0000    0.0202    1.0000 -999.0000 -999.0000    0.7860    2.8766    7.0496 -999.0000    0.6204 -999.0000 
1592.4032    1.7444    1.8702    1.9022    8.5000    8.9649  103.6919   65.4478    0.0352    0.3801    5.5355    2.4995    0.0001    0.0001 -999.0000    0.0001    1.0000 -999.0000 -999.0000    0.8670    2.9395    7.3472 -999.0000    0.5824 -999.0000 
1592.5556    1.8250    1.9559    2.0102    8.5000    8.9425  102.5315   70.2428    0.0400    0.3825    5.5792    2.5269    0.0001    0.0001 -999.0000    0.0001    0.9526 -999.0000 -999.0000    0.9400    2.9727    7.5119 -999.0000    0.5716 -999.0000 
1592.7080    1.8507    1.9560    2.0120    8.5000    9.0099  101.7962   66.2467    0.0251    0.4018    5.2774    2.5161    0.0001    0.0001 -999.0000    0.0001    1.0000 -999.0000 -999.0000    0.9834    2.9942    7.5339 -999.0000    0.5322 -999.0000 
1592.8604    1.8451    1.9761    2.0185    8.5000    8.9200  100.6889   62.0510    0.0080    0.4035    4.8268    2.5048    0.0001    0.0001 -999.0000    0.0001    0.9262 -999.0000 -999.0000    0.9628    3.0271    7.5823 -999.0000    0.5389 -999.0000 
1593.0128    1.8400    1.9682    2.0156    8.5000    8.9425  101.3811   62.0507    0.0015    0.3977    4.4499    2.4956    0.0001    0.0001 -999.0000    0.0001    0.9702 -999.0000 -999.0000    0.9205    3.0065    7.5029 -999.0000    0.5077 -999.0000 
1593.1652    1.8278    1.9427    1.9994    8.5000    9.0099  101.9137   63.0499    0.0000    0.3534    4.2263    2.4933    0.0120    0.0120 -999.0000    0.0120    1.0000 -999.0000 -999.0000    0.7570    2.9908    7.4568 -999.0000    0.5195 -999.0000 
1593.3176    1.8021    1.9150    1.9646    8.5000    8.9649  102.3220   64.4197   -0.0025    0.3204    4.1679    2.4855    0.0384    0.0384 -999.0000    0.0384    1.0000 -999.0000 -999.0000    0.6211    2.9788    7.4038 -999.0000    0.5174 -999.0000 
1593.4700    1.8130    1.9034    1.9658    8.5000    8.8975  102.9949   65.1053    0.0016    0.3144    4.1918    2.5021    0.0254    0.0254 -999.0000    0.0254    1.0000 -999.0000 -999.0000    0.6387    2.9594    7.4047 -999.0000    0.5303 -999.0000 
1593.6224    1.8624    1.9355    2.0101    8.5000    9.0099  102.2380   62.1079    0.0045    0.3282    4.2129    2.5146    0.0053    0.0053 -999.0000    0.0053    1.0000 -999.0000 -999.0000    0.7174    2.9813    7.4967 -999.0000    0.4823 -999.0000 
1593.7748    1.9050    1.9563    2.0361    8.5000    8.9425  101.9145   61.8798    0.0036    0.3753    4.1899    2.5104    0.0001    0.0001 -999.0000    0.0001    1.0000 -999.0000 -999.0000    0.8753    2.9907    7.5079 -999.0000    0.4454 -999.0000 
1593.9272    1.9396    1.9731    2.0449    8.5000    9.0099  101.0477   57.8835    0.0012    0.4099    4.1229    2.5008    0.0001    0.0001 -999.0000    0.0001    0.9017 -999.0000 -999.0000    0.9762    3.0164    7.5435 -999.0000    0.4187 -999.0000 
1594.0796    1.9907    2.0369    2.0744    8.5000    8.9425  100.2943   57.6841   -0.0008    0.4161    4.0787    2.4962    0.0001    0.0001 -999.0000    0.0001    1.0000 -999.0000 -999.0000    0.9878    3.0391    7.5862 -999.0000    0.4399 -999.0000 
1594.2320    2.1168    2.1596    2.1795    8.5000    8.9425  100.0585   56.3140   -0.0014    0.3975    4.0460    2.5031    0.0001    0.0001 -999.0000    0.0001    0.8808 -999.0000 -999.0000    0.9376    3.0462    7.6251 -999.0000    0.4591 -999.0000 
1594.3844    2.2895    2.3055    2.2939    8.5000    8.9425   98.6804   59.7107   -0.0018    0.3332    4.0382    2.5138    0.0032    0.0032 -999.0000    0.0032    1.0000 -999.0000 -999.0000    0.7334    3.0888    7.7645 -999.0000    0.4506 -999.0000 
1594.5368    2.5011    2.4598    2.4327    8.5000    8.9425   95.3817   61.9084    0.0013    0.2952    4.0556    2.5391    0.0001    0.0001 -999.0000    0.0001    1.0000 -999.0000 -999.0000    0.6571    3.1956    8.1139 -999.0000    0.4469 -999.0000 
1594.6892    2.8147    2.6624    2.6383    8.5000    8.9200   91.8339   60.0815    0.0045    0.2680    4.0981    2.5608    0.0001    0.0001 -999.0000    0.0001    1.0000 -999.0000 -999.0000    0.6110    3.3190    8.4992 -999.0000    0.4454 -999.0000 
1594.8416    2.9496    2.7612    2.7473    8.5000    8.8301   88.7346   55.2863    0.0060    0.2687    4.1410    2.5704    0.0001    0.0001 -999.0000    0.0001    1.0000 -999.0000 -999.0000    0.6360    3.4350    8.8292 -999.0000    0.4582 -999.0000 
1594.9940    2.7783    2.5866    2.5455    8.5000    8.8301   87.0074   52.1465    0.0079    0.2723    4.2032    2.5701    0.0001    0.0001 -999.0000    0.0001    1.0000 -999.0000 -999.0000    0.6483    3.5032    9.0034 -999.0000    0.4820 -999.0000 
1595.1464    2.5041    2.3002    2.2415    8.5000    8.8525   87.8535   51.2048    0.0102    0.2643    4.2290    2.5702    0.0001    0.0001 -999.0000    0.0001    1.0000 -999.0000 -999.0000    0.6199    3.4694    8.9169 -999.0000    0.5115 -999.0000 
1595.2988    2.2284    2.1203    2.0403    8.5000    8.8301   89.6120   52.4037    0.0103    0.2922    4.2190    2.5599    0.0001    0.0001 -999.0000    0.0001    1.0000 -999.0000 -999.0000    0.6951    3.4013    8.7069 -999.0000    0.5425 -999.0000 
1595.4512    1.9835    1.9444    1.8499    8.5000    8.8525   92.5855   57.1988    0.0052    0.3219    4.1899    2.5253    0.0001    0.0001 -999.0000    0.0001    1.0000 -999.0000 -999.0000    0.7201    3.2921    8.3135 -999.0000    0.5578 -999.0000 
1595.6036    1.7923    1.7347    1.6553    8.5000    8.9425   96.6530   60.1959   -0.0001    0.3878    4.2290    2.4823    0.0033    0.0033 -999.0000    0.0033    1.0000 -999.0000 -999.0000    0.8542    3.1535    7.8282 -999.0000    0.6074 -999.0000 
1595.7560    1.7143    1.7907    1.7028    8.5000    8.9874   99.3859   63.9918    0.0005    0.4096    4.4095    2.4626    0.0023    0.0023 -999.0000    0.0023    1.0000 -999.0000 -999.0000    0.8857    3.0668    7.5525 -999.0000    0.5943 -999.0000 
1595.9084    1.9839    1.9461    1.8591    8.5000    9.0773  101.5372   63.9917    0.0041    0.4218    4.6537    2.4668    0.0001    0.0001 -999.0000    0.0001    1.0000 -999.0000 -999.0000    0.9389    3.0019    7.4051 -999.0000    0.5853 -999.0000 
1596.0608    2.3158    2.2943    2.1444    8.5000    9.1898  102.7716   63.5922    0.0135    0.3817    4.7486    2.4956    0.0001    0.0001 -999.0000    0.0001    0.9721 -999.0000 -999.0000    0.8634    2.9658    7.4016 -999.0000    0.5424 -999.0000 
1596.2132    2.2971    2.1233    2.0409    8.5000    9.1448  102.7822   60.7951    0.0169    0.3786    4.5947    2.5188    0.0001    0.0001 -999.0000    0.0001    0.9725 -999.0000 -999.0000    0.9069    2.9655    7.4694 -999.0000    0.5348 -999.0000 
1596.3656    1.9725    1.9170    1.8668    8.5000    8.9874  103.0910   60.9381    0.0149    0.3835    4.2344    2.5257    0.0001    0.0001 -999.0000    0.0001    1.0000 -999.0000 -999.0000    0.9406    2.9566    7.4675 -999.0000    0.5515 -999.0000 
1596.5180    1.7888    1.7985    1.8025    8.5000    8.8863  103.6521   64.1345    0.0061    0.4186    3.9382    2.5133    0.0001    0.0001 -999.0000    0.0001    1.0000 -999.0000 -999.0000    0.9999    2.9406    7.3905 -999.0000    0.5857 -999.0000 
