~VERSION INFORMATION
 VERS.                 2.0:   CWLS LOG ASCII STANDARD - VERSION 2.0
 WRAP.                  NO:   SINGLE LINE PER DEPTH STEP
 CREA.                 01/01/2018 01:01:01 p.m.
#CREATED USING IP VERSION 4.4.2017.257 BY UNKNOWN ON 01/01/2001 01:01:01 p.m.
~WELL INFORMATION
#MNEM.UNIT       DATA                          DESCRIPTION MNEMONIC
#---------      ---------------------------   --------------------------
 STRT    .M         416.4848                  : START DEPTH
 STOP    .M         2874.0872                 : STOP DEPTH
 STEP    .M         0.1524                    : STEP VALUE
 NULL    .      -999.0000                     : NULL VALUE
 DATE    .      28/02/2018                    : LAS file Creation Date
 WELL  .      CL-1001      : Well Name
 COMP  .      Unknown            : Company
 FLD   .      CL                 : Field
 STATE .      Unknown            : State
 COUNT .      Unknown            : Country
 API   .      Unknown            : API Number
 UWI   .                         : Unique Well Identifier (UWI)
 LOC   .      Localizacion       : Location
 TOWN  .      Unknown            : Township
 RANG  .      Unknown            : Range
 LATI  .      Unknown            : Latitude/Northing
 LONG  .      Unknown            : Longitude/Easting
 PDAT  .      Unknown            : Permanent Datum
 EPDAT .      Unknown            : Elevation of Permanent Datum
 LGMEA .      Unknown            : Log Measured from
 APDAT .      Unknown            : Elevation Above Permanent Datum
 KB    .      Unknown            : KB Elevation
 DF    .      Unknown            : DF Elevation
 GL    .      Unknown            : GL Elevation
 RWS   .      -999               : Def_Rw
 WST   .      -999               : Def_Rwt
 UTMZ  .      Unknown            : UTM Zone
 BHS   .      OPEN               : Completion Status
 RIGN  .      Unknown            : Rig Name
 CNTY  .      Unknown            : County
 PROV  .      Unknown            : Province
 MDEC  .      0                  : Magnetic Declination
 SRVC  .      Unknown            : Contractor
~CURVE INFORMATION
#MNEM               UNIT       API CODE   Curve Type Comments
#----------   --------------- ----------  ---------- -----------
 DEPTH       .M                         : Depth       
 ED_AT10     .ohm.m                     : ShalRes     (AIT-M)                 (3in)                   Array Induction Two Foot Resistivity A10
 ED_AT60     .ohm.m                     : MedRes      (AIT-M)                 (3in)                   Array Induction Two Foot Resistivity A60
 ED_AT90     .ohm.m                     : DeepRes     (AIT-M)                 (3in)                   Array Induction Two Foot Resistivity A90
 ED_BS       .in                        : BitSize     (RT)    (Borehole)              (6in)                   Bit Size
 ED_CALI     .in                        : Caliper     (HDRS-H)                (1in)                   Caliper
 ED_DTCO     .us/ft                     : Sonic       (DSLT-BB)               (6in)                   Delta-T (also called Slowness or Interval Transit Time)
 ED_GR       .gAPI                      : GammaRay    (HGNS-H)                (6in)                   Calibrated Gamma Ray
 ED_HDRA     .g/cm3                     : Drho        (HDRS-H)                (2in)                   Density Standoff Correction
 ED_NPHI     .m3/m3                     : Neutron     (HGNS-H)                (6in)                   Thermal Neutron Porosity (original Ratio Method) in Selected Lithology
 ED_PEFZ     .B/E                       : PEF         (HDRS-H)                (2in)                   Standard Resolution Formation Photoelectric Factor
 ED_RHOZ     .g/cm3                     : Density     (HDRS-H)                (2in)                   Standard Resolution Formation Density
 EV_BVW_K    .Dec                       : BVW         
 EV_BVWSXO_K .Dec                       : BVWSXO      
 EV_Perm_Mtz .mD                        :             
 EV_PHIE_K   .Dec                       : Phi         
 EV_SW_K     .Dec                       : Sw          
 EV_VDolC_K  .Dec                       :             
 EV_VLimeC_K .Dec                       :             
 EV_VWCL_K   .Dec                       : Vcl         
 FR_VP_km    .Km/seg                    :             
 FR_ZP_km    .Km/seg                    :             
 I_DRHO      .                          :             
 IND_GR      .                          :             
 IND_INV     .                          :             
~A  DEPTH  ED_AT10   ED_AT60   ED_AT90    ED_BS    ED_CALI   ED_DTCO    ED_GR    ED_HDRA   ED_NPHI   ED_PEFZ   ED_RHOZ   EV_BVW_K EV_BVWSX~ EV_Perm_~ EV_PHIE_~  EV_SW_K  EV_VDolC~ EV_VLime~ EV_VWCL_~  FR_VP_km  FR_ZP_km   I_DRHO    IND_GR   IND_INV  
# ...
 660.3248    1.7515    2.0573    2.0444    8.5000    8.9425  100.5115   79.6608    0.0012    0.3257    4.6216    2.3987    0.1206    0.1206 -999.0000    0.1206    1.0000 -999.0000 -999.0000    0.4364    3.0325    7.2741 -999.0000    0.7291 -999.0000 
 660.4772    1.6711    1.9919    1.9757    8.5000    8.9087  103.3949   78.4621    0.0048    0.3317    4.7050    2.3950    0.1208    0.1208 -999.0000    0.1208    1.0000 -999.0000 -999.0000    0.4491    2.9479    7.0604 -999.0000    0.7408 -999.0000 
 660.6296    1.6516    1.9559    1.9149    8.5000    8.8750  103.2056   75.0656    0.0038    0.3457    4.6387    2.3879    0.1199    0.1199 -999.0000    0.1199    1.0000 -999.0000 -999.0000    0.4822    2.9533    7.0522 -999.0000    0.7617 -999.0000 
 660.7820    1.6283    1.9562    1.8993    8.5000    8.9200  103.0781   75.3229    0.0030    0.3606    4.5750    2.3890    0.1103    0.1103 -999.0000    0.1103    1.0000 -999.0000 -999.0000    0.5381    2.9570    7.0643 -999.0000    0.7262 -999.0000 
 660.9344    1.6168    1.9130    1.8848    8.5000    8.9425  103.5548   73.3248   -0.0004    0.3914    4.6880    2.3810    0.0989    0.0989 -999.0000    0.1006    0.9829 -999.0000 -999.0000    0.6290    2.9434    7.0083 -999.0000    0.6898 -999.0000 
 661.0868    1.5959    1.9135    1.8969    8.5000    8.9425  103.3184   71.4978    0.0031    0.3804    4.9237    2.3910    0.0973    0.0973 -999.0000    0.0973    1.0000 -999.0000 -999.0000    0.6133    2.9501    7.0537 -999.0000    0.6537 -999.0000 
 661.2392    1.6179    1.9318    1.9140    8.5000    8.9649  103.5611   68.7005    0.0053    0.3808    5.1170    2.3952    0.0929    0.0929 -999.0000    0.0929    1.0000 -999.0000 -999.0000    0.6245    2.9432    7.0496 -999.0000    0.6816 -999.0000 
 661.3916    1.7029    2.0030    2.0029    8.5000    8.9425  103.1741   69.3856    0.0079    0.3424    5.0653    2.4102    0.1000    0.1000 -999.0000    0.1000    1.0000 -999.0000 -999.0000    0.5228    2.9542    7.1202 -999.0000    0.6370 -999.0000 
 661.5440    1.7469    2.1173    2.1002    8.5000    8.9425  101.4458   72.2114    0.0060    0.3615    4.8307    2.4154    0.0841    0.0841 -999.0000    0.0841    1.0000 -999.0000 -999.0000    0.6029    3.0046    7.2571 -999.0000    0.6222 -999.0000 
 661.6964    1.7335    2.1181    2.0677    8.5000    8.9425  101.1401   70.4135    0.0064    0.3654    4.5469    2.4229    0.0744    0.0744 -999.0000    0.0744    1.0000 -999.0000 -999.0000    0.6347    3.0136    7.3018 -999.0000    0.5903 -999.0000 
 661.8488    1.7113    2.0927    2.0487    8.5000    8.9425  100.9773   74.9800    0.0064    0.3470    4.3762    2.4211    0.0866    0.0866 -999.0000    0.0866    1.0000 -999.0000 -999.0000    0.5651    3.0185    7.3082 -999.0000    0.6143 -999.0000 
 662.0012    1.6494    2.0547    2.0446    8.5000    8.9874  103.4432   72.5824    0.0071    0.3378    4.3292    2.4171    0.0958    0.0958 -999.0000    0.0958    1.0000 -999.0000 -999.0000    0.5226    2.9465    7.1222 -999.0000    0.6258 -999.0000 
 662.1536    1.6140    1.9564    1.9713    8.5000    9.0324  104.3857   76.6923    0.0041    0.3406    4.3236    2.3995    0.1114    0.1114 -999.0000    0.1114    1.0000 -999.0000 -999.0000    0.4915    2.9199    7.0065 -999.0000    0.6510 -999.0000 
 662.3060    1.5805    1.8762    1.9080    8.5000    9.0549  104.6189   74.6375    0.0004    0.3852    4.3196    2.3722    0.1098    0.1098 -999.0000    0.1127    0.9746 -999.0000 -999.0000    0.5861    2.9134    6.9112 -999.0000    0.6557 -999.0000 
 662.4584    1.5546    1.8155    1.8420    8.5000    9.1223  105.9382   80.0323    0.0007    0.3976    4.4120    2.3451    0.1231    0.1231 -999.0000    0.1316    0.9356 -999.0000 -999.0000    0.5667    2.8771    6.7472 -999.0000    0.6728 -999.0000 
 662.6108    1.5253    1.7808    1.8362    8.5000    9.1673  104.7508   84.3709    0.0173    0.4250    4.7748    2.3448    0.1014    0.1014 -999.0000    0.1141    0.8884 -999.0000 -999.0000    0.6638    2.9098    6.8227 -999.0000    0.6995 -999.0000 
 662.7632    1.4702    1.7542    1.8086    8.5000    9.1898  105.5710   83.1720    0.0354    0.4327    5.2668    2.3437    0.0867    0.0867 -999.0000    0.0870    0.9972 -999.0000 -999.0000    0.6887    2.8872    6.7666 -999.0000    0.7519 -999.0000 
 662.9156    1.4370    1.6606    1.7156    8.5000    9.1898  109.6419   78.2623    0.0538    0.4216    5.6137    2.3551    0.0990    0.0990 -999.0000    0.1008    0.9817 -999.0000 -999.0000    0.6756    2.7800    6.5469 -999.0000    0.7643 -999.0000 
 663.0680    1.3720    1.6038    1.6521    8.5000    9.3696  111.0518   78.0052    0.0561    0.4048    5.6646    2.3532    0.1203    0.1203 -999.0000    0.1203    1.0000 -999.0000 -999.0000    0.6116    2.7447    6.4586 -999.0000    0.7541 -999.0000 
 663.2204    1.3678    1.5718    1.6149    8.5000    8.6502  113.0444   78.0054    0.0501    0.4428    5.5194    2.3469    0.0488    0.0488 -999.0000    0.0488    1.0000 -999.0000 -999.0000    0.7321    2.6963    6.3280 -999.0000    0.7165 -999.0000 
 663.3728    1.4195    1.6996    1.7472    8.5000    8.8076  109.1684   80.0607    0.0401    0.4729    5.3096    2.3440    0.0080    0.0080 -999.0000    0.0080    1.0000 -999.0000 -999.0000    0.8330    2.7920    6.5446 -999.0000    0.7067 -999.0000 
 663.5252    1.4977    1.7844    1.8262    8.5000    8.9200  104.9349   80.2604    0.0332    0.4580    5.0516    2.3509    0.0169    0.0169 -999.0000    0.0169    1.0000 -999.0000 -999.0000    0.7959    2.9047    6.8286 -999.0000    0.7332 -999.0000 
 663.6776    1.5680    1.8139    1.8669    8.5000    8.8975  103.2531   81.6875    0.0370    0.4149    4.8148    2.3851    0.0562    0.0562 -999.0000    0.0562    1.0000 -999.0000 -999.0000    0.7224    2.9520    7.0408 -999.0000    0.7679 -999.0000 
 663.8300    1.6354    1.9038    1.9256    8.5000    8.9200  100.6877   82.3439    0.0371    0.3962    4.6809    2.3969    0.0809    0.0809 -999.0000    0.0824    0.9817 -999.0000 -999.0000    0.6833    3.0272    7.2559 -999.0000    0.7739 -999.0000 
 663.9824    1.6953    1.9577    2.0305    8.5000    8.9874  102.5150   79.3473    0.0380    0.3678    4.6676    2.3998    0.0958    0.0958 -999.0000    0.0958    1.0000 -999.0000 -999.0000    0.5889    2.9732    7.1351 -999.0000    0.7283 -999.0000 
 664.1348    1.7296    2.0213    2.1398    8.5000    9.0549  102.2292   81.1737    0.0404    0.3651    4.7162    2.4046    0.0911    0.0911 -999.0000    0.0925    0.9851 -999.0000 -999.0000    0.5907    2.9815    7.1693 -999.0000    0.7378 -999.0000 
 664.2872    1.7632    2.1162    2.1679    8.5000    9.1448  101.2647   74.9799    0.0493    0.3495    4.7620    2.4400    0.0666    0.0666 -999.0000    0.0666    1.0000 -999.0000 -999.0000    0.6181    3.0099    7.3443 -999.0000    0.7471 -999.0000 
 664.4396    1.8075    2.1845    2.2225    8.5000    9.1673  100.6707   72.5533    0.0454    0.3854    4.8304    2.4450    0.0327    0.0327 -999.0000    0.0328    0.9945 -999.0000 -999.0000    0.7578    3.0277    7.4027 -999.0000    0.7687 -999.0000 
 664.5920    1.8735    2.2187    2.2155    8.5000    9.3022  100.0094   70.6986    0.0365    0.3865    4.9349    2.4367    0.0410    0.0410 -999.0000    0.0418    0.9816 -999.0000 -999.0000    0.7425    3.0477    7.4264 -999.0000    0.6739 -999.0000 
 664.7444    1.8883    2.2427    2.2096    8.5000    9.3696   99.6557   74.1809    0.0239    0.3570    4.9896    2.4088    0.0917    0.0917 -999.0000    0.0930    0.9864 -999.0000 -999.0000    0.5715    3.0585    7.3675 -999.0000    0.6880 -999.0000 
 664.8968    1.8945    2.2271    2.2045    8.5000    9.3921   99.8101   76.2075    0.0278    0.3410    4.9270    2.4188    0.0924    0.0924 -999.0000    0.0924    1.0000 -999.0000 -999.0000    0.5380    3.0538    7.3864 -999.0000    0.6693 -999.0000 
 665.0492    1.8942    2.2121    2.2020    8.5000    9.3921  100.6526   75.5510    0.0293    0.3118    4.7954    2.4200    0.1076    0.1076 -999.0000    0.1076    1.0000 -999.0000 -999.0000    0.4369    3.0282    7.3283 -999.0000    0.7183 -999.0000 
