~VERSION INFORMATION
 VERS.                 2.0:   CWLS LOG ASCII STANDARD - VERSION 2.0
 WRAP.                  NO:   SINGLE LINE PER DEPTH STEP
 CREA.                 01/01/2018 01:01:01 p.m.
#CREATED USING IP VERSION 4.4.2017.257 BY UNKNOWN ON 01/01/2001 01:01:01 p.m.
~WELL INFORMATION
#MNEM.UNIT       DATA                          DESCRIPTION MNEMONIC
#---------      ---------------------------   --------------------------
 STRT    .M         416.4848                  : START DEPTH
 STOP    .M         2874.0872                 : STOP DEPTH
 STEP    .M         0.1524                    : STEP VALUE
 NULL    .      -999.0000                     : NULL VALUE
 DATE    .      28/02/2018                    : LAS file Creation Date
 WELL  .      CL-1001      : Well Name
 COMP  .      Unknown            : Company
 FLD   .      CL                 : Field
 STATE .      Unknown            : State
 COUNT .      Unknown            : Country
 API   .      Unknown            : API Number
 UWI   .                         : Unique Well Identifier (UWI)
 LOC   .      Localizacion       : Location
 TOWN  .      Unknown            : Township
 RANG  .      Unknown            : Range
 LATI  .      Unknown            : Latitude/Northing
 LONG  .      Unknown            : Longitude/Easting
 PDAT  .      Unknown            : Permanent Datum
 EPDAT .      Unknown            : Elevation of Permanent Datum
 LGMEA .      Unknown            : Log Measured from
 APDAT .      Unknown            : Elevation Above Permanent Datum
 KB    .      Unknown            : KB Elevation
 DF    .      Unknown            : DF Elevation
 GL    .      Unknown            : GL Elevation
 RWS   .      -999               : Def_Rw
 WST   .      -999               : Def_Rwt
 UTMZ  .      Unknown            : UTM Zone
 BHS   .      OPEN               : Completion Status
 RIGN  .      Unknown            : Rig Name
 CNTY  .      Unknown            : County
 PROV  .      Unknown            : Province
 MDEC  .      0                  : Magnetic Declination
 SRVC  .      Unknown            : Contractor
~CURVE INFORMATION
#MNEM               UNIT       API CODE   Curve Type Comments
#----------   --------------- ----------  ---------- -----------
 DEPTH       .M                         : Depth       
 ED_AT10     .ohm.m                     : ShalRes     (AIT-M)                 (3in)                   Array Induction Two Foot Resistivity A10
 ED_AT60     .ohm.m                     : MedRes      (AIT-M)                 (3in)                   Array Induction Two Foot Resistivity A60
 ED_AT90     .ohm.m                     : DeepRes     (AIT-M)                 (3in)                   Array Induction Two Foot Resistivity A90
 ED_BS       .in                        : BitSize     (RT)    (Borehole)              (6in)                   Bit Size
 ED_CALI     .in                        : Caliper     (HDRS-H)                (1in)                   Caliper
 ED_DTCO     .us/ft                     : Sonic       (DSLT-BB)               (6in)                   Delta-T (also called Slowness or Interval Transit Time)
 ED_GR       .gAPI                      : GammaRay    (HGNS-H)                (6in)                   Calibrated Gamma Ray
 ED_HDRA     .g/cm3                     : Drho        (HDRS-H)                (2in)                   Density Standoff Correction
 ED_NPHI     .m3/m3                     : Neutron     (HGNS-H)                (6in)                   Thermal Neutron Porosity (original Ratio Method) in Selected Lithology
 ED_PEFZ     .B/E                       : PEF         (HDRS-H)                (2in)                   Standard Resolution Formation Photoelectric Factor
 ED_RHOZ     .g/cm3                     : Density     (HDRS-H)                (2in)                   Standard Resolution Formation Density
 EV_BVW_K    .Dec                       : BVW         
 EV_BVWSXO_K .Dec                       : BVWSXO      
 EV_Perm_Mtz .mD                        :             
 EV_PHIE_K   .Dec                       : Phi         
 EV_SW_K     .Dec                       : Sw          
 EV_VDolC_K  .Dec                       :             
 EV_VLimeC_K .Dec                       :             
 EV_VWCL_K   .Dec                       : Vcl         
 FR_VP_km    .Km/seg                    :             
 FR_ZP_km    .Km/seg                    :             
 I_DRHO      .                          :             
 IND_GR      .                          :             
 IND_INV     .                          :             
~A  DEPTH  ED_AT10   ED_AT60   ED_AT90    ED_BS    ED_CALI   ED_DTCO    ED_GR    ED_HDRA   ED_NPHI   ED_PEFZ   ED_RHOZ   EV_BVW_K EV_BVWSX~ EV_Perm_~ EV_PHIE_~  EV_SW_K  EV_VDolC~ EV_VLime~ EV_VWCL_~  FR_VP_km  FR_ZP_km   I_DRHO    IND_GR   IND_INV  
# ...
1742.9744    3.0722    3.0167    3.0114    8.5000    8.8750   87.1558   54.7727   -0.0004    0.2680    4.2082    2.5462    0.0081    0.0081 -999.0000    0.0081    1.0000 -999.0000 -999.0000    0.5771    3.4972    8.9047 -999.0000    0.4932 -999.0000 
1743.1268    3.1269    3.0245    3.0198    8.5000    8.8076   87.0750   52.9173   -0.0009    0.2689    4.2281    2.5493    0.0047    0.0047 -999.0000    0.0047    1.0000 -999.0000 -999.0000    0.5872    3.5004    8.9235 -999.0000    0.4624 -999.0000 
1743.2792    2.9779    2.9195    2.9595    8.5000    8.8076   87.7153   54.4871    0.0008    0.2607    4.2578    2.5559    0.0027    0.0027 -999.0000    0.0027    1.0000 -999.0000 -999.0000    0.5738    3.4749    8.8815 -999.0000    0.4208 -999.0000 
1743.4316    2.8135    2.7589    2.7558    8.5000    8.8975   88.4198   55.0867    0.0010    0.2799    4.3272    2.5504    0.0001    0.0001 -999.0000    0.0001    1.0000 -999.0000 -999.0000    0.6289    3.4472    8.7917 -999.0000    0.3680 -999.0000 
1743.5840    2.6283    2.6060    2.5846    8.5000    8.9200   89.2883   52.1185    0.0024    0.2941    4.4300    2.5485    0.0001    0.0001 -999.0000    0.0001    1.0000 -999.0000 -999.0000    0.6751    3.4137    8.6996 -999.0000    0.3760 -999.0000 
1743.7364    2.5951    2.5805    2.5669    8.5000    8.8076   90.5896   53.1175    0.0036    0.3250    4.4689    2.5520    0.0001    0.0001 -999.0000    0.0001    0.8835 -999.0000 -999.0000    0.7937    3.3646    8.5866 -999.0000    0.4666 -999.0000 
1743.8888    2.5806    2.5794    2.5689    8.5000    8.8076   92.6286   54.1734    0.0015    0.3271    4.3886    2.5462    0.0001    0.0001 -999.0000    0.0001    0.8896 -999.0000 -999.0000    0.7876    3.2906    8.3783 -999.0000    0.5296 -999.0000 
1744.0412    2.5638    2.5660    2.5335    8.5000    8.8750   92.7963   59.5962    0.0001    0.3397    4.2215    2.5436    0.0001    0.0001 -999.0000    0.0001    0.8598 -999.0000 -999.0000    0.8264    3.2846    8.3548 -999.0000    0.4945 -999.0000 
1744.1936    2.7352    2.6912    2.6739    8.5000    8.8525   91.8556   54.8009   -0.0027    0.3224    4.1080    2.5363    0.0001    0.0001 -999.0000    0.0001    0.9008 -999.0000 -999.0000    0.7473    3.3183    8.4159 -999.0000    0.4459 -999.0000 
1744.3460    2.9734    2.9004    2.8666    8.5000    8.8188   89.6613   52.0610    0.0009    0.3288    4.1186    2.5531    0.0001    0.0001 -999.0000    0.0001    0.7756 -999.0000 -999.0000    0.8096    3.3995    8.6790 -999.0000    0.4486 -999.0000 
1744.4984    3.2699    3.2048    3.1904    8.5000    8.7851   86.3886   48.2653    0.0030    0.3023    4.1774    2.5644    0.0001    0.0001 -999.0000    0.0001    0.7603 -999.0000 -999.0000    0.7420    3.5282    9.0480 -999.0000    0.4857 -999.0000 
1744.6508    3.3427    3.3080    3.3097    8.5000    8.7401   85.2441   50.2631    0.0046    0.2995    4.2112    2.5718    0.0001    0.0001 -999.0000    0.0001    0.7260 -999.0000 -999.0000    0.7492    3.5756    9.1957 -999.0000    0.4799 -999.0000 
1744.8032    3.2078    3.1956    3.2111    8.5000    8.7963   86.2851   51.3476    0.0019    0.2712    4.1910    2.5597    0.0001    0.0001 -999.0000    0.0001    0.9045 -999.0000 -999.0000    0.6197    3.5325    9.0420 -999.0000    0.4398 -999.0000 
1744.9556    3.0259    3.0377    3.0571    8.5000    8.8975   87.7192   55.1434    0.0011    0.2746    4.1758    2.5512    0.0001    0.0001 -999.0000    0.0001    0.9615 -999.0000 -999.0000    0.6123    3.4747    8.8649 -999.0000    0.4591 -999.0000 
1745.1080    2.8735    2.9103    2.9238    8.5000    8.8975   89.1826   58.1119    0.0025    0.2883    4.2778    2.5447    0.0001    0.0001 -999.0000    0.0001    0.9535 -999.0000 -999.0000    0.6457    3.4177    8.6971 -999.0000    0.4717 -999.0000 
1745.2604    2.7527    2.7978    2.8066    8.5000    8.9649   90.8752   61.1085    0.0049    0.2997    4.5961    2.5375    0.0001    0.0001 -999.0000    0.0001    0.9582 -999.0000 -999.0000    0.6693    3.3541    8.5110 -999.0000    0.4978 -999.0000 
1745.4128    2.6902    2.7099    2.7461    8.5000    8.8750   91.3506   61.9079    0.0047    0.3109    5.0669    2.5302    0.0001    0.0001 -999.0000    0.0001    0.9467 -999.0000 -999.0000    0.6924    3.3366    8.4423 -999.0000    0.4998 -999.0000 
1745.5652    2.6802    2.6679    2.7102    8.5000    8.9537   91.6092   60.0812    0.0030    0.3087    5.3608    2.5300    0.0011    0.0011 -999.0000    0.0011    0.9711 -999.0000 -999.0000    0.6839    3.3272    8.4179 -999.0000    0.4831 -999.0000 
1745.7176    2.7386    2.6900    2.7457    8.5000    9.0099   91.1578   57.6839    0.0026    0.2986    5.3293    2.5404    0.0001    0.0001 -999.0000    0.0001    0.9755 -999.0000 -999.0000    0.6721    3.3437    8.4941 -999.0000    0.4818 -999.0000 
1745.8700    2.8234    2.7760    2.8209    8.5000    9.0324   91.6021   57.3987    0.0032    0.3105    5.0859    2.5438    0.0001    0.0001 -999.0000    0.0001    0.8829 -999.0000 -999.0000    0.7227    3.3274    8.4643 -999.0000    0.4610 -999.0000 
1746.0224    2.8743    2.8418    2.8513    8.5000    8.9425   91.7788   60.8521    0.0037    0.2905    4.9000    2.5439    0.0001    0.0001 -999.0000    0.0001    0.9687 -999.0000 -999.0000    0.6517    3.3210    8.4483 -999.0000    0.4568 -999.0000 
1746.1748    2.8343    2.8475    2.8531    8.5000    8.9874   90.4947   60.8523    0.0020    0.2988    4.7361    2.5546    0.0001    0.0001 -999.0000    0.0001    0.8933 -999.0000 -999.0000    0.7062    3.3682    8.6042 -999.0000    0.4772 -999.0000 
1746.3272    2.9343    2.9848    2.9695    8.5000    8.7177   88.8779   61.7653    0.0039    0.2771    4.5013    2.5722    0.0001    0.0001 -999.0000    0.0001    0.9043 -999.0000 -999.0000    0.6703    3.4294    8.8212 -999.0000    0.4673 -999.0000 
1746.4796    3.2342    3.2214    3.1627    8.5000    8.6952   88.1454   53.9735    0.0017    0.2670    4.2803    2.5699    0.0001    0.0001 -999.0000    0.0001    0.9051 -999.0000 -999.0000    0.6288    3.4579    8.8865 -999.0000    0.4894 -999.0000 
1746.6320    3.4582    3.4524    3.4041    8.5000    8.8076   85.7053   47.9796    0.0010    0.2551    4.1892    2.5563    0.0052    0.0052 -999.0000    0.0055    0.9514 -999.0000 -999.0000    0.5547    3.5564    9.0911 -999.0000    0.4669 -999.0000 
1746.7844    3.6271    3.6493    3.6034    8.5000    8.8076   84.5935   45.6965   -0.0002    0.2489    4.2789    2.5543    0.0103    0.0103 -999.0000    0.0110    0.9398 -999.0000 -999.0000    0.5275    3.6031    9.2034 -999.0000    0.4731 -999.0000 
1746.9368    3.7114    3.6483    3.5847    8.5000    8.7851   84.0137   48.4934    0.0021    0.2606    4.4882    2.5719    0.0001    0.0001 -999.0000    0.0001    0.8222 -999.0000 -999.0000    0.6107    3.6280    9.3309 -999.0000    0.4536 -999.0000 
1747.0892    3.7270    3.6329    3.6415    8.5000    8.7514   82.7538   50.8909    0.0039    0.2688    4.6739    2.5926    0.0001    0.0001 -999.0000    0.0001    0.7177 -999.0000 -999.0000    0.6888    3.6832    9.5491 -999.0000    0.4366 -999.0000 
1747.2416    3.7484    3.6554    3.7379    8.5000    8.7401   82.1454   45.6392    0.0034    0.2623    4.6979    2.6039    0.0001    0.0001 -999.0000    0.0001    0.6961 -999.0000 -999.0000    0.6918    3.7105    9.6617 -999.0000    0.4145 -999.0000 
1747.3940    3.5977    3.5847    3.6106    8.5000    8.8750   82.8364   46.2386    0.0025    0.2441    4.5695    2.5995    0.0001    0.0001 -999.0000    0.0001    0.8086 -999.0000 -999.0000    0.6166    3.6795    9.5648 -999.0000    0.4247 -999.0000 
1747.5464    3.1147    3.1487    3.1736    8.5000    8.9425   84.8102   48.4361    0.0039    0.2556    4.5673    2.5917    0.0001    0.0001 -999.0000    0.0001    0.8871 -999.0000 -999.0000    0.6394    3.5939    9.3145 -999.0000    0.4321 -999.0000 
1747.6988    2.8022    2.8450    2.8635    8.5000    8.9874   88.5745   55.5145    0.0050    0.2876    4.7941    2.5737    0.0001    0.0001 -999.0000    0.0001    0.8837 -999.0000 -999.0000    0.7114    3.4412    8.8566 -999.0000    0.4410 -999.0000 
