~VERSION INFORMATION
 VERS.                 2.0:   CWLS LOG ASCII STANDARD - VERSION 2.0
 WRAP.                  NO:   SINGLE LINE PER DEPTH STEP
 CREA.                 01/01/2018 01:01:01 p.m.
#CREATED USING IP VERSION 4.4.2017.257 BY UNKNOWN ON 01/01/2001 01:01:01 p.m.
~WELL INFORMATION
#MNEM.UNIT       DATA                          DESCRIPTION MNEMONIC
#---------      ---------------------------   --------------------------
 STRT    .M         416.4848                  : START DEPTH
 STOP    .M         2874.0872                 : STOP DEPTH
 STEP    .M         0.1524                    : STEP VALUE
 NULL    .      -999.0000                     : NULL VALUE
 DATE    .      28/02/2018                    : LAS file Creation Date
 WELL  .      CL-1001      : Well Name
 COMP  .      Unknown            : Company
 FLD   .      CL                 : Field
 STATE .      Unknown            : State
 COUNT .      Unknown            : Country
 API   .      Unknown            : API Number
 UWI   .                         : Unique Well Identifier (UWI)
 LOC   .      Localizacion       : Location
 TOWN  .      Unknown            : Township
 RANG  .      Unknown            : Range
 LATI  .      Unknown            : Latitude/Northing
 LONG  .      Unknown            : Longitude/Easting
 PDAT  .      Unknown            : Permanent Datum
 EPDAT .      Unknown            : Elevation of Permanent Datum
 LGMEA .      Unknown            : Log Measured from
 APDAT .      Unknown            : Elevation Above Permanent Datum
 KB    .      Unknown            : KB Elevation
 DF    .      Unknown            : DF Elevation
 GL    .      Unknown            : GL Elevation
 RWS   .      -999               : Def_Rw
 WST   .      -999               : Def_Rwt
 UTMZ  .      Unknown            : UTM Zone
 BHS   .      OPEN               : Completion Status
 RIGN  .      Unknown            : Rig Name
 CNTY  .      Unknown            : County
 PROV  .      Unknown            : Province
 MDEC  .      0                  : Magnetic Declination
 SRVC  .      Unknown            : Contractor
~CURVE INFORMATION
#MNEM               UNIT       API CODE   Curve Type Comments
#----------   --------------- ----------  ---------- -----------
 DEPTH       .M                         : Depth       
 ED_AT10     .ohm.m                     : ShalRes     (AIT-M)                 (3in)                   Array Induction Two Foot Resistivity A10
 ED_AT60     .ohm.m                     : MedRes      (AIT-M)                 (3in)                   Array Induction Two Foot Resistivity A60
 ED_AT90     .ohm.m                     : DeepRes     (AIT-M)                 (3in)                   Array Induction Two Foot Resistivity A90
 ED_BS       .in                        : BitSize     (RT)    (Borehole)              (6in)                   Bit Size
 ED_CALI     .in                        : Caliper     (HDRS-H)                (1in)                   Caliper
 ED_DTCO     .us/ft                     : Sonic       (DSLT-BB)               (6in)                   Delta-T (also called Slowness or Interval Transit Time)
 ED_GR       .gAPI                      : GammaRay    (HGNS-H)                (6in)                   Calibrated Gamma Ray
 ED_HDRA     .g/cm3                     : Drho        (HDRS-H)                (2in)                   Density Standoff Correction
 ED_NPHI     .m3/m3                     : Neutron     (HGNS-H)                (6in)                   Thermal Neutron Porosity (original Ratio Method) in Selected Lithology
 ED_PEFZ     .B/E                       : PEF         (HDRS-H)                (2in)                   Standard Resolution Formation Photoelectric Factor
 ED_RHOZ     .g/cm3                     : Density     (HDRS-H)                (2in)                   Standard Resolution Formation Density
 EV_BVW_K    .Dec                       : BVW         
 EV_BVWSXO_K .Dec                       : BVWSXO      
 EV_Perm_Mtz .mD                        :             
 EV_PHIE_K   .Dec                       : Phi         
 EV_SW_K     .Dec                       : Sw          
 EV_VDolC_K  .Dec                       :             
 EV_VLimeC_K .Dec                       :             
 EV_VWCL_K   .Dec                       : Vcl         
 FR_VP_km    .Km/seg                    :             
 FR_ZP_km    .Km/seg                    :             
 I_DRHO      .                          :             
 IND_GR      .                          :             
 IND_INV     .                          :             
~A  DEPTH  ED_AT10   ED_AT60   ED_AT90    ED_BS    ED_CALI   ED_DTCO    ED_GR    ED_HDRA   ED_NPHI   ED_PEFZ   ED_RHOZ   EV_BVW_K EV_BVWSX~ EV_Perm_~ EV_PHIE_~  EV_SW_K  EV_VDolC~ EV_VLime~ EV_VWCL_~  FR_VP_km  FR_ZP_km   I_DRHO    IND_GR   IND_INV  
# ...
1435.7360    4.0192    4.0293    3.9771    8.5000    8.5603   89.8991   57.3414    0.0030    0.3766    5.5068    2.4643    0.0148    0.0148 -999.0000    0.0260    0.5671 -999.0000 -999.0000    0.7717    3.3905    8.3550 -999.0000    0.5572 -999.0000 
1435.8884    3.9240    3.9512    3.8760    8.5000    8.5378   90.6188   56.9416    0.0042    0.3293    5.7335    2.4636    0.0377    0.0377 -999.0000    0.0556    0.6787 -999.0000 -999.0000    0.6014    3.3635    8.2862 -999.0000    0.5404 -999.0000 
1436.0408    3.9228    3.9709    3.9099    8.5000    8.4928   85.3355   56.5421    0.0184    0.2994    5.9061    2.4973    0.0295    0.0295 -999.0000    0.0395    0.7463 -999.0000 -999.0000    0.5739    3.5718    8.9198 -999.0000    0.4761 -999.0000 
1436.1932    3.9058    4.0406    4.0328    8.5000    8.5378   83.9519   53.1171    0.0226    0.3115    5.9542    2.5150    0.0098    0.0098 -999.0000    0.0146    0.6711 -999.0000 -999.0000    0.6585    3.6306    9.1310 -999.0000    0.4582 -999.0000 
1436.3456    3.3456    3.5740    3.5860    8.5000    8.5603   89.0289   49.3214    0.0191    0.3321    5.9932    2.4984    0.0137    0.0137 -999.0000    0.0194    0.7101 -999.0000 -999.0000    0.6932    3.4236    8.5535 -999.0000    0.4556 -999.0000 
1436.4980    2.9458    3.0478    3.0224    8.5000    8.5940   87.8033   53.5170    0.0120    0.3580    6.2253    2.4671    0.0270    0.0270 -999.0000    0.0347    0.7802 -999.0000 -999.0000    0.7121    3.4714    8.5642 -999.0000    0.4366 -999.0000 
1436.6504    2.8192    3.1162    3.0873    8.5000    8.6502   91.5398   57.8551    0.0159    0.3550    6.7070    2.4562    0.0361    0.0361 -999.0000    0.0468    0.7696 -999.0000 -999.0000    0.6757    3.3297    8.1785 -999.0000    0.4516 -999.0000 
1436.8028    3.0042    3.2166    3.1653    8.5000    8.5828   94.0559   60.2524    0.0311    0.3305    7.1766    2.4889    0.0236    0.0236 -999.0000    0.0289    0.8153 -999.0000 -999.0000    0.6654    3.2406    8.0657 -999.0000    0.4744 -999.0000 
1436.9552    3.2801    3.5188    3.4775    8.5000    8.4479   91.1320   57.0558    0.0445    0.3435    7.3261    2.5384    0.0001    0.0001 -999.0000    0.0001    0.6251 -999.0000 -999.0000    0.8280    3.3446    8.4900 -999.0000    0.5164 -999.0000 
1437.1076    3.6859    4.0284    4.0098    8.5000    8.4591   91.3689   58.1975    0.0468    0.3360    6.9905    2.5704    0.0001    0.0001 -999.0000    0.0001    0.5124 -999.0000 -999.0000    0.8761    3.3359    8.5748 -999.0000    0.5707 -999.0000 
1437.2600    3.6474    3.8349    3.8234    8.5000    8.5153   87.6134   60.7951    0.0383    0.3345    6.3989    2.5694    0.0001    0.0001 -999.0000    0.0001    0.5422 -999.0000 -999.0000    0.8684    3.4789    8.9389 -999.0000    0.6189 -999.0000 
1437.4124    3.2887    3.6098    3.6142    8.5000    8.6502   87.8615   57.9980    0.0220    0.3216    5.8458    2.5346    0.0001    0.0001 -999.0000    0.0001    0.6724 -999.0000 -999.0000    0.7407    3.4691    8.7928 -999.0000    0.6429 -999.0000 
1437.5648    3.0195    3.3241    3.3391    8.5000    8.5490   90.0041   55.2578    0.0181    0.3498    5.5158    2.5207    0.0001    0.0001 -999.0000    0.0001    0.6665 -999.0000 -999.0000    0.8088    3.3865    8.5363 -999.0000    0.6060 -999.0000 
1437.7172    2.9860    3.3322    3.3646    8.5000    8.5266   89.3665   50.2629    0.0198    0.3680    5.3276    2.5335    0.0001    0.0001 -999.0000    0.0001    0.5922 -999.0000 -999.0000    0.9034    3.4107    8.6408 -999.0000    0.5708 -999.0000 
1437.8696    3.3216    3.6496    3.7404    8.5000    8.5603   87.8861   56.2570    0.0183    0.3523    5.1772    2.5457    0.0001    0.0001 -999.0000    0.0001    0.5493 -999.0000 -999.0000    0.8761    3.4681    8.8287 -999.0000    0.5625 -999.0000 
1438.0220    3.6530    3.9573    3.9760    8.5000    8.5828   86.4694   58.9972    0.0129    0.3227    5.0827    2.5397    0.0001    0.0001 -999.0000    0.0001    0.5983 -999.0000 -999.0000    0.7566    3.5249    8.9523 -999.0000    0.5320 -999.0000 
1438.1744    3.2137    3.4818    3.4968    8.5000    8.5603   86.7977   62.7932    0.0053    0.3206    5.0814    2.5089    0.0113    0.0113 -999.0000    0.0150    0.7513 -999.0000 -999.0000    0.6769    3.5116    8.8102 -999.0000    0.5196 -999.0000 
1438.3268    2.9239    3.2425    3.2627    8.5000    8.5603   86.8981   61.5940    0.0161    0.3686    5.2248    2.5126    0.0001    0.0001 -999.0000    0.0001    0.6439 -999.0000 -999.0000    0.8568    3.5076    8.8130 -999.0000    0.5184 -999.0000 
1438.4792    2.9966    3.2233    3.2157    8.5000    8.5603   89.2147   64.5625    0.0247    0.3618    5.3607    2.5238    0.0001    0.0001 -999.0000    0.0001    0.6520 -999.0000 -999.0000    0.8585    3.4165    8.6224 -999.0000    0.5667 -999.0000 
1438.6316    3.0953    3.2803    3.2797    8.5000    8.5603   91.0272   67.1598    0.0330    0.3467    5.4799    2.5433    0.0001    0.0001 -999.0000    0.0001    0.6451 -999.0000 -999.0000    0.8508    3.3484    8.5161 -999.0000    0.5775 -999.0000 
1438.7840    3.0309    3.2577    3.2586    8.5000    8.6052   90.3386   68.1585    0.0267    0.2993    5.4762    2.5396    0.0001    0.0001 -999.0000    0.0001    0.8209 -999.0000 -999.0000    0.6729    3.3740    8.5684 -999.0000    0.5571 -999.0000 
1438.9364    2.9013    3.1019    3.0848    8.5000    8.6052   90.8708   66.3318    0.0198    0.3350    5.3834    2.5297    0.0001    0.0001 -999.0000    0.0001    0.7511 -999.0000 -999.0000    0.7768    3.3542    8.4851 -999.0000    0.5760 -999.0000 
1439.0888    2.8870    3.0167    3.0610    8.5000    8.6502   91.9621   68.7296    0.0135    0.3393    5.1727    2.5204    0.0001    0.0001 -999.0000    0.0001    0.7632 -999.0000 -999.0000    0.7705    3.3144    8.3536 -999.0000    0.5937 -999.0000 
1439.2412    3.0656    3.2514    3.2677    8.5000    8.6277   92.3600   66.3324    0.0089    0.3954    4.9596    2.5112    0.0001    0.0001 -999.0000    0.0001    0.5806 -999.0000 -999.0000    0.9488    3.3001    8.2872 -999.0000    0.6140 -999.0000 
1439.3936    3.3628    3.4585    3.5450    8.5000    8.6390   92.1709   64.9623    0.0060    0.3786    4.8198    2.5064    0.0001    0.0001 -999.0000    0.0001    0.5784 -999.0000 -999.0000    0.8778    3.3069    8.2883 -999.0000    0.5675 -999.0000 
1439.5460    3.7760    3.8691    3.9055    8.5000    8.6502   90.1444   58.5686    0.0073    0.3682    4.7315    2.5240    0.0001    0.0001 -999.0000    0.0001    0.5226 -999.0000 -999.0000    0.8818    3.3812    8.5341 -999.0000    0.5494 -999.0000 
1439.6984    3.9841    4.0798    4.0619    8.5000    8.6277   87.8734   56.1712    0.0080    0.3079    4.5511    2.5415    0.0001    0.0001 -999.0000    0.0001    0.6256 -999.0000 -999.0000    0.7083    3.4686    8.8156 -999.0000    0.5984 -999.0000 
1439.8508    3.8827    3.9807    3.8884    8.5000    8.6277   87.6331   54.8013    0.0056    0.3018    4.2976    2.5348    0.0002    0.0002 -999.0000    0.0003    0.6903 -999.0000 -999.0000    0.6706    3.4781    8.8164 -999.0000    0.6263 -999.0000 
1440.0032    3.6187    3.7662    3.6533    8.5000    8.6502   87.8425   57.5986    0.0006    0.3106    4.0924    2.5069    0.0170    0.0170 -999.0000    0.0225    0.7544 -999.0000 -999.0000    0.6366    3.4698    8.6987 -999.0000    0.6250 -999.0000 
1440.1556    3.4659    3.6714    3.6009    8.5000    8.6952   90.1728   60.3954   -0.0041    0.3366    4.0491    2.4754    0.0281    0.0281 -999.0000    0.0397    0.7078 -999.0000 -999.0000    0.6552    3.3802    8.3673 -999.0000    0.6053 -999.0000 
1440.3080    3.4174    3.6026    3.5236    8.5000    8.7401   92.1631   59.4820   -0.0052    0.3552    4.1173    2.4666    0.0256    0.0256 -999.0000    0.0376    0.6796 -999.0000 -999.0000    0.7010    3.3072    8.1575 -999.0000    0.5864 -999.0000 
1440.4604    3.3531    3.5157    3.4561    8.5000    8.7626   93.0707   57.6838   -0.0056    0.3630    4.1960    2.4620    0.0254    0.0254 -999.0000    0.0377    0.6751 -999.0000 -999.0000    0.7180    3.2749    8.0628 -999.0000    0.5462 -999.0000 
