~VERSION INFORMATION
 VERS.                 2.0:   CWLS LOG ASCII STANDARD - VERSION 2.0
 WRAP.                  NO:   SINGLE LINE PER DEPTH STEP
 CREA.                 01/01/2018 01:01:01 p.m.
#CREATED USING IP VERSION 4.4.2017.257 BY UNKNOWN ON 01/01/2001 01:01:01 p.m.
~WELL INFORMATION
#MNEM.UNIT       DATA                          DESCRIPTION MNEMONIC
#---------      ---------------------------   --------------------------
 STRT    .M         416.4848                  : START DEPTH
 STOP    .M         2874.0872                 : STOP DEPTH
 STEP    .M         0.1524                    : STEP VALUE
 NULL    .      -999.0000                     : NULL VALUE
 DATE    .      28/02/2018                    : LAS file Creation Date
 WELL  .      CL-1001      : Well Name
 COMP  .      Unknown            : Company
 FLD   .      CL                 : Field
 STATE .      Unknown            : State
 COUNT .      Unknown            : Country
 API   .      Unknown            : API Number
 UWI   .                         : Unique Well Identifier (UWI)
 LOC   .      Localizacion       : Location
 TOWN  .      Unknown            : Township
 RANG  .      Unknown            : Range
 LATI  .      Unknown            : Latitude/Northing
 LONG  .      Unknown            : Longitude/Easting
 PDAT  .      Unknown            : Permanent Datum
 EPDAT .      Unknown            : Elevation of Permanent Datum
 LGMEA .      Unknown            : Log Measured from
 APDAT .      Unknown            : Elevation Above Permanent Datum
 KB    .      Unknown            : KB Elevation
 DF    .      Unknown            : DF Elevation
 GL    .      Unknown            : GL Elevation
 RWS   .      -999               : Def_Rw
 WST   .      -999               : Def_Rwt
 UTMZ  .      Unknown            : UTM Zone
 BHS   .      OPEN               : Completion Status
 RIGN  .      Unknown            : Rig Name
 CNTY  .      Unknown            : County
 PROV  .      Unknown            : Province
 MDEC  .      0                  : Magnetic Declination
 SRVC  .      Unknown            : Contractor
~CURVE INFORMATION
#MNEM               UNIT       API CODE   Curve Type Comments
#----------   --------------- ----------  ---------- -----------
 DEPTH       .M                         : Depth       
 ED_AT10     .ohm.m                     : ShalRes     (AIT-M)                 (3in)                   Array Induction Two Foot Resistivity A10
 ED_AT60     .ohm.m                     : MedRes      (AIT-M)                 (3in)                   Array Induction Two Foot Resistivity A60
 ED_AT90     .ohm.m                     : DeepRes     (AIT-M)                 (3in)                   Array Induction Two Foot Resistivity A90
 ED_BS       .in                        : BitSize     (RT)    (Borehole)              (6in)                   Bit Size
 ED_CALI     .in                        : Caliper     (HDRS-H)                (1in)                   Caliper
 ED_DTCO     .us/ft                     : Sonic       (DSLT-BB)               (6in)                   Delta-T (also called Slowness or Interval Transit Time)
 ED_GR       .gAPI                      : GammaRay    (HGNS-H)                (6in)                   Calibrated Gamma Ray
 ED_HDRA     .g/cm3                     : Drho        (HDRS-H)                (2in)                   Density Standoff Correction
 ED_NPHI     .m3/m3                     : Neutron     (HGNS-H)                (6in)                   Thermal Neutron Porosity (original Ratio Method) in Selected Lithology
 ED_PEFZ     .B/E                       : PEF         (HDRS-H)                (2in)                   Standard Resolution Formation Photoelectric Factor
 ED_RHOZ     .g/cm3                     : Density     (HDRS-H)                (2in)                   Standard Resolution Formation Density
 EV_BVW_K    .Dec                       : BVW         
 EV_BVWSXO_K .Dec                       : BVWSXO      
 EV_Perm_Mtz .mD                        :             
 EV_PHIE_K   .Dec                       : Phi         
 EV_SW_K     .Dec                       : Sw          
 EV_VDolC_K  .Dec                       :             
 EV_VLimeC_K .Dec                       :             
 EV_VWCL_K   .Dec                       : Vcl         
 FR_VP_km    .Km/seg                    :             
 FR_ZP_km    .Km/seg                    :             
 I_DRHO      .                          :             
 IND_GR      .                          :             
 IND_INV     .                          :             
~A  DEPTH  ED_AT10   ED_AT60   ED_AT90    ED_BS    ED_CALI   ED_DTCO    ED_GR    ED_HDRA   ED_NPHI   ED_PEFZ   ED_RHOZ   EV_BVW_K EV_BVWSX~ EV_Perm_~ EV_PHIE_~  EV_SW_K  EV_VDolC~ EV_VLime~ EV_VWCL_~  FR_VP_km  FR_ZP_km   I_DRHO    IND_GR   IND_INV  
# ...
2518.3856   96.7078  103.7933  216.2235    6.1250    6.1825   50.9107   17.7499    0.0106    0.0019    4.8130    2.6824    0.0032    0.0032    0.0000    0.0032    1.0000    0.0000    0.9820    0.0148    5.9870   16.0975    0.0062 -999.0000   -0.3494 
2518.5380   47.9067   52.4461   79.8603    6.1250    6.1894   51.9818   21.0781    0.0146    0.0057    4.8521    2.6830    0.0058    0.0058    0.0000    0.0058    1.0000    0.0000    0.9730    0.0212    5.8636   15.7280    0.0102 -999.0000   -0.2219 
2518.6904   27.9105   30.1847   42.1347    6.1250    6.2009   51.4399   33.2686    0.0233    0.0104    4.8795    2.6920    0.0055    0.0055    0.0000    0.0055    1.0000    0.0000    0.9645    0.0300    5.9254   15.9348    0.0189 -999.0000   -0.1789 
2518.8428   37.6445   46.9728   55.8669    6.1250    6.1825   51.7348   37.8648    0.0288    0.0099    4.9235    2.6892    0.0078    0.0078    0.0000    0.0078    1.0000    0.0000    0.9591    0.0331    5.8916   15.7619    0.0244 -999.0000   -0.1715 
2518.9952   80.5208   53.0721   63.1999    6.1250    6.2101   51.5725   30.6873    0.0375    0.0041    4.9980    2.6875    0.0001    0.0001    0.0000    0.0001    1.0000    0.0000    0.9751    0.0248    5.9101   16.0228    0.0330 -999.0000    0.1052 
2519.1476   98.5976   62.7811   78.8016    6.1250    6.1836   51.0583   19.3876    0.0485    0.0017    5.0544    2.6939    0.0002    0.0002    0.0000    0.0002    1.0000    0.0000    0.9823    0.0175    5.9696   16.1159    0.0441 -999.0000    0.0973 
2519.3000   72.2664   82.9482  103.3844    6.1250    6.1836   50.4551   13.1532    0.0521    0.0031    5.0495    2.6930    0.0069    0.0069    0.0000    0.0069    1.0000    0.0000    0.9783    0.0148    6.0410   16.1635    0.0477 -999.0000   -0.1555 
2519.4524   53.7692   45.2445   46.4885    6.1250    6.1778   49.7395   12.1264    0.0473    0.0081    4.9963    2.6867    0.0058    0.0058    0.0000    0.0058    1.0000    0.0000    0.9771    0.0171    6.1279   16.4962    0.0428 -999.0000    0.0632 
2519.6048   37.4716   35.0051   27.9372    6.1250    6.1778   55.4036    9.7879    0.0360    0.0139    4.9575    2.6659    0.0151    0.0151    0.0005    0.0151    1.0000    0.0000    0.9690    0.0159    5.5014   14.6791    0.0315 -999.0000    0.1275 
2519.7572   29.5092   19.1477   15.7240    6.1250    6.1871   59.3792   10.5574    0.0352    0.0226    4.9209    2.6490    0.0218    0.0218    0.0029    0.0218    1.0000    0.0000    0.9617    0.0165    5.1331   13.6598    0.0308 -999.0000    0.2734 
2519.9096   12.9616   14.6686   11.3282    6.1250    6.1894   57.8471   19.3775    0.0468    0.0379    4.8778    2.6421    0.0256    0.0256    0.0067    0.0256    1.0000    0.1521    0.7958    0.0266    5.2691   14.2008    0.0424 -999.0000    0.0585 
2520.0620    8.3912    8.2536    7.6142    6.1250    6.1721   60.8066   42.4720    0.0503    0.0669    4.8242    2.6159    0.0766    0.0766    1.3834    0.0766    1.0000    0.0000    0.8606    0.0628    5.0126   12.6519    0.0459 -999.0000    0.0422 
2520.2144    9.3634   10.0369    9.0807    6.1250    6.2815   61.6921   47.3467    0.0377    0.0784    4.8356    2.5705    0.0574    0.0574    0.3333    0.0574    1.0000    0.0000    0.8575    0.0851    4.9407   12.8502    0.0332 -999.0000    0.0133 
2520.3668   17.9458   12.5051   11.9283    6.1250    6.1364   64.0230   39.3735    0.0327    0.0683    4.9826    2.5520    0.0634    0.0634    0.5440    0.0634    1.0000    0.0000    0.8639    0.0727    4.7608   12.2237    0.0282 -999.0000    0.1774 
2520.5192   34.1813   20.1126   18.7207    6.1250    6.1491   61.2779   15.1609    0.0279    0.0586    5.0872    2.5376    0.0594    0.0594    1.3913    0.0768    0.7735    0.0000    0.8933    0.0299    4.9741   12.5499    0.0235 -999.0000    0.2615 
2520.6716   58.3271   34.3834   32.0582    6.1250    6.0857   60.2122    8.4123    0.0295    0.0631    5.0933    2.5429    0.0454    0.0454    1.4225    0.0772    0.5880    0.0000    0.9104    0.0124    5.0621   12.8534    0.0251 -999.0000    0.2599 
2520.8240   88.5107   56.3794   48.8405    6.1250    6.0903   59.0534    7.2649    0.0165    0.0657    4.9672    2.5231    0.0368    0.0368    1.8784    0.0817    0.4504    0.0000    0.9081    0.0102    5.1614   13.0446    0.0120 -999.0000    0.2582 
2520.9764  182.8744   79.2555   67.0251    6.1250    6.0857   58.9473    8.1539    0.0077    0.0644    4.8402    2.5175    0.0314    0.0314    2.0969    0.0835    0.3760    0.0000    0.9060    0.0105    5.1707   13.0162    0.0033 -999.0000    0.4359 
2521.1288  533.6949  128.2681  117.0513    6.1250    6.0799   56.7983    7.8089    0.0058    0.0541    4.8200    2.5366    0.0238    0.0238    1.5980    0.0790    0.3006    0.0000    0.9126    0.0084    5.3664   13.4882    0.0013 -999.0000    0.6589 
2521.2812 1950.0000  237.3696  223.3540    6.1250    6.1041   55.1714    7.4086    0.0106    0.0378    4.8568    2.5827    0.0172    0.0172    0.2193    0.0529    0.3251    0.0000    0.9401    0.0070    5.5246   14.2367    0.0062 -999.0000    0.9410 
2521.4336 1950.0000  455.3710  442.8850    6.1250    6.1260   54.2235    9.7689    0.0164    0.0205    4.9232    2.6360    0.0122    0.0122    0.0024    0.0210    0.5815    0.0000    0.9716    0.0074    5.6212   14.9848    0.0119 -999.0000    0.6437 
2521.5860 1950.0000  254.7356  261.2486    6.1250    6.1732   52.0478   13.1066    0.0204    0.0108    4.9218    2.6727    0.0083    0.0083    0.0000    0.0083    1.0000    0.0000    0.9810    0.0107    5.8562   15.7712    0.0159 -999.0000    0.8730 
2521.7384 1852.5410  143.6106  135.6246    6.1250    6.1663   50.7932   20.8442    0.0162    0.0066    4.8803    2.6737    0.0098    0.0098    0.0001    0.0098    1.0000    0.0000    0.9779    0.0123    6.0008   16.0471    0.0117 -999.0000    1.1354 
2521.8908 1217.7080   91.6100  102.0804    6.1250    6.1433   50.5224   21.9076    0.0106    0.0061    4.8284    2.6578    0.0145    0.0145    0.0004    0.0145    1.0000    0.0000    0.9739    0.0116    6.0330   16.0053    0.0061 -999.0000    1.0766 
2522.0432  534.5314   92.0445   84.0131    6.1250    6.1502   50.6669   23.1087    0.0052    0.0058    4.8082    2.6403    0.0188    0.0188    0.0014    0.0188    1.0000    0.0000    0.9702    0.0109    6.0158   15.8419    0.0008 -999.0000    0.8036 
2522.1956  209.5536   87.6468   76.8855    6.1250    6.1433   50.2833   18.8505    0.0045    0.0048    4.7794    2.6411    0.0158    0.0158    0.0006    0.0158    1.0000    0.0000    0.9718    0.0124    6.0617   16.0203    0.0001 -999.0000    0.4355 
2522.3480  131.4717  108.9954  123.3701    6.1250    6.2239   50.0779   17.6916    0.0059    0.0024    4.7679    2.6527    0.0108    0.0108    0.0001    0.0108    1.0000    0.0000    0.9733    0.0159    6.0865   16.1641    0.0015 -999.0000    0.0276 
2522.5004  383.0758   53.5018   52.4835    6.1250    6.1686   49.7193   14.1852    0.0082    0.0006    4.7559    2.6680    0.0035    0.0035    0.0000    0.0035    1.0000    0.0000    0.9733    0.0232    6.1304   16.4141    0.0037 -999.0000    0.8633 
2522.6528   93.3148   41.5273   46.2993    6.1250    6.1663   49.7757   12.1016    0.0095    0.0008    4.7973    2.6707    0.0032    0.0032    0.0000    0.0032    1.0000    0.0000    0.9749    0.0218    6.1235   16.4134    0.0050 -999.0000    0.3044 
2522.8052   28.3112   33.2478   34.6727    6.1250    6.1364   50.1721   13.1369    0.0169    0.0052    4.8556    2.6754    0.0075    0.0075    0.0000    0.0075    1.0000    0.0000    0.9699    0.0226    6.0751   16.2344    0.0125 -999.0000   -0.0880 
2522.9576   13.8893   13.7260   14.0675    6.1250    6.1491   60.2138   29.9935    0.0242    0.0159    4.8215    2.6628    0.0103    0.0103    0.0001    0.0103    1.0000    0.0000    0.9477    0.0420    5.0620   13.5325    0.0197 -999.0000   -0.0055 
2523.1100    5.1940    4.8564    4.8661    6.1250    6.1318   61.3917   61.6193    0.0330    0.0391    4.6893    2.6258    0.0189    0.0189    0.0016    0.0189    1.0000    0.0000    0.8779    0.1031    4.9648   13.1621    0.0286 -999.0000    0.0283 
